time_s,active,flight_phase,control_mode,ra_ft,ias_kt,ground_speed_kt,vs_fpm,latitude_deg,longitude_deg,heading_deg,track_magnetic_deg,roll_deg,pitch_deg,body_pitch_rate_deg_s,flight_path_angle_deg,estimated_aoa_deg,mach,lateral_deviation,runway_heading_deg,loc_ddm,gs_ddm,loc_dots,gs_dots,target_heading_deg,target_roll_deg,target_vs_fpm,target_flight_path_angle_deg,target_pitch_deg,vertical_correction_deg,configured_aoa_deg,reference_aoa_deg,flaps_angle_deg,slats_angle_deg,flap_configuration,landing_weight_kg,target_ias_kt,vapp_kt,vsr1_kt,vfe_kt,alpha_prot_deg,alpha_sw_deg,alpha_margin_deg,roll_limit_deg,flare_armed,flare_active,flare_progress,flare_entry_ra_ft,flare_entry_vs_fpm,body_norm_accel_g,left_throttle_angle_deg,right_throttle_angle_deg,stabilizer_angle_deg,elevator_left_angle_deg,elevator_right_angle_deg,aileron_left_angle_deg,aileron_right_angle_deg,rudder_angle_deg,wind_direction_true_deg,wind_speed_kt,nose_gear_wow,left_gear_wow,right_gear_wow,main_gear_touchdown,eng_left_thrust,eng_right_thrust,envelope_warnings,touchdown_vs_limit_fpm,touchdown_speed_min_kt,touchdown_speed_max_kt,touchdown_pitch_limit_deg,aileron_cmd_deg,elevator_cmd,rudder_cmd_deg,throttle_left_rate_cmd_deg_s,throttle_right_rate_cmd_deg_s,throttle_cmd_norm,throttle_target_angle_deg,throttle_left_position_cmd_norm,throttle_right_position_cmd_norm,roll_kp,roll_ki,roll_kd,roll_i_term,pitch_kp,pitch_ki,pitch_kd,pitch_i_term,speed_kp,speed_ki,speed_kd,speed_i_term,criteria_course_error_deg,criteria_glideslope_error_deg,criteria_status
0.0011529000039445236,1,11,Approach,2670.104,152.117081,161.94014,-90.52763,55.93156814575195,37.1641731262207,70.98804,75.5777,5.257599,4.90988159,0.192767248,-0.31627880851594303,5.226160398515943,0.24197036781792292,0.0,64.0,-0.08060885,0.1404495,-0.5200570967741935,-0.8025685714285715,58.79942903225806,-11.744789677419362,-900.0,-3.1412350084109497,4.908152239994084,-0.8094723699999999,7.1,5.226160398515943,26.9518318,27.96318,FLAPS_3,69277.0,152.11679277499903,140.0,113.6,183.0,12.995074080455193,13.6,7.76891368193925,15.0,0,0,0.0,150.0,-90.52763,0.01796756,25.43515,25.3931141,-6.21418571,-0.4825109,-0.482446223,-0.229271054,0.229273275,0.224456713,-26.0000134,14.0,1,0,0,0,57.25338,57.160965,,472.0,134.4,150.0,8.1,10.0,-0.000345878973137686,0.0,-0.016894704698014493,0.01673401530198703,0.456268078230807,25.41413195745595,0.456268078230807,0.456268078230807,-7,-0.35,-0.6,-0.0,0.2,0.0045,0.06,-8.971954328893157e-09,0.005,0.0,0.005,-0.0,11.577699999999993,2.683721191484057,WAITING_CAPTURE
0.0021722000019508414,1,11,Approach,2668.6145,152.0968,161.925949,-88.33488,55.93156814575195,37.1641731262207,71.01337,75.60272,5.263672,4.915283,0.191924229,-0.30864513546030653,5.223928135460306,0.2419377485246006,0.0,64.0,-0.08060885,0.1404495,-0.5200570967741935,-0.8025685714285715,58.79942903225806,-11.76230367741935,-900.0,-3.1415097511700947,4.906623289997074,-0.81166512,7.1,5.226160398515943,26.9518318,27.96318,FLAPS_3,69277.0,152.11653794999953,140.0,113.6,183.0,12.995155628688497,13.6,7.771227493228191,15.0,0,0,0.0,150.0,-88.33488,0.01778324,25.43515,25.3931141,-6.21418571,-0.4804455,-0.480509251,-1.68238878,1.660596,-0.9163998,-26.0000134,14.0,1,0,0,0,57.25398,57.16188,,472.0,134.4,150.0,8.1,10.0,-0.0033482914563950127,0.0,-1.8719941603764084e-05,0.03361000005839776,0.45626838533893066,25.41414906337844,0.45626838533893066,0.45626838533893066,-7,-0.35,-0.6,-0.0,0.2,0.0045,0.06,-4.8692745078120955e-08,0.005,0.0,0.005,0.0,11.602720000000005,2.6913548645396936,WAITING_CAPTURE
0.002827900003467221,1,11,Approach,2668.57,152.0968,161.911743,-87.45589,55.93156814575195,37.164344787597656,71.05023,75.6418152,5.27212524,4.92349243,0.193430513,-0.30560078272915514,5.229093212729155,0.2419377485246006,0.0,64.0,-0.08060885,0.1404495,-0.5200570967741935,-0.8025685714285715,58.79942903225806,-11.789670317419365,-900.0,-3.1417848324265183,4.905123289997074,-0.81254411,7.1,5.226160398515943,26.9518318,27.96318,FLAPS_3,69277.0,152.11628794999953,140.0,113.6,183.0,12.995155628688497,13.6,7.766062415959342,15.0,0,0,0.0,150.0,-87.45589,0.0175397228,25.43515,25.3931141,-6.21418571,-0.476708621,-0.476928622,-2.7797544,2.73820662,-1.7689023,-26.0000134,14.0,1,0,0,0,57.2558136,57.16404,,472.0,134.4,150.0,8.1,10.0,-0.007738880960311431,0.0,-9.754052166861815e-05,0.0335311794783329,0.45626868497729495,25.41416575323533,0.45626868497729495,0.45626868497729495,-7,-0.35,-0.6,-0.0,0.2,0.0045,0.06,-1.3135387509128595e-07,0.005,0.0,0.005,0.0,11.641815199999996,2.6943992172708446,WAITING_CAPTURE
0.003272400004789233,1,11,Approach,2667.88916,152.0765,161.911743,-86.33481,55.93156814575195,37.164344787597656,71.06741,75.66193,5.27565,4.92778,0.19520472,-0.3016834187621905,5.229463418762191,0.24190531557529746,0.0,64.0,-0.08146044,0.141419873,-0.5255512258064516,-0.80811356,58.74448774193549,-11.842209580645157,-900.0,-3.1417848324265183,4.903623289997074,-0.8136651899999999,7.1,5.226160398515943,26.9518318,27.96318,FLAPS_3,69277.0,152.11603794999954,140.0,113.6,183.0,12.995236711061757,13.6,7.765773292299566,15.0,0,0,0.0,150.0,-86.33481,0.0173800271,25.43515,25.3931141,-6.21418571,-0.4750607,-0.4750217,-3.59430718,3.539111,-2.23789358,-26.0000134,14.0,1,0,0,0,57.2576332,57.16629,,472.0,134.4,150.0,8.1,10.0,-0.010159290459687366,0.0,0.016786520160838342,0.05041524016083987,0.4562692872588014,25.41419930031524,0.4562692872588014,0.4562692872588014,-7,-0.35,-0.6,-0.0,0.2,0.0045,0.06,-2.4005907010445426e-07,0.005,0.0,0.005,0.0,11.661929999999984,2.6983165812378096,WAITING_CAPTURE
0.0037038000009488314,1,11,Approach,2667.22534,152.052353,161.899765,-84.74681,55.93156814575195,37.16451644897461,71.1029358,75.7095947,5.280365,4.938431,0.200997576,-0.2961564110372898,5.234587411037289,0.2418666408588452,0.0,64.0,-0.08146044,0.141419873,-0.5255512258064516,-0.80811356,58.74448774193549,-11.875574870645146,-900.0,-3.1420168086742724,4.902123289997074,-0.8152531900000001,7.1,5.226160398515943,26.9518318,27.96318,FLAPS_3,69277.0,152.11578794999954,140.0,113.6,183.0,12.995333397852887,13.6,7.760745986815598,15.0,0,0,0.0,150.0,-84.74681,0.01663371,25.43515,25.3931141,-6.21418571,-0.452598721,-0.453142375,-5.22383642,5.13619757,-2.665167,-26.0000134,14.0,1,0,0,0,57.26318,57.17265,,472.0,134.4,150.0,8.1,10.0,-0.015750406835006,0.0,0.03687612130857475,0.07050484130857626,0.4562702494456239,25.41425289412125,0.4562702494456239,0.4562702494456239,-7,-0.35,-0.6,-0.0,0.2,0.0045,0.06,-4.034437651176197e-07,0.005,0.0,0.005,0.0,11.709594699999997,2.70384358896271,WAITING_CAPTURE
0.004121500001929235,1,11,Approach,2666.66772,152.052353,161.899765,-83.73858,55.93156814575195,37.16451644897461,71.1029358,75.7095947,5.280365,4.938431,0.200997576,-0.2926331096364152,5.2310641096364145,0.2418666408588452,0.0,64.0,-0.08146044,0.141419873,-0.5255512258064516,-0.80811356,58.74448774193549,-11.875574870645146,-900.0,-3.1420168086742724,4.900623289997074,-0.81626142,7.1,5.226160398515943,26.9518318,27.96318,FLAPS_3,69277.0,152.11553794999955,140.0,113.6,183.0,12.995333397852887,13.6,7.7642692882164726,15.0,0,0,0.0,150.0,-83.73858,0.01663371,25.43515,25.3931141,-6.21418571,-0.421899825,-0.42245236,-6.309923,6.200833,-2.72956061,-26.0000134,14.0,1,0,0,0,57.26502,57.1745262,,472.0,134.4,150.0,8.1,10.0,-0.016008240591893017,0.0,0.036777475688949235,0.07040619568895076,0.4562712090937114,25.414306346519727,0.4562712090937114,0.4562712090937114,-7,-0.35,-0.6,-0.0,0.2,0.0045,0.06,-5.735784601307854e-07,0.005,0.0,0.005,0.0,11.709594699999997,2.707366890363585,WAITING_CAPTURE
0.004542599999695085,1,11,Approach,2666.35327,152.02771,161.885773,-83.00885,55.93156814575195,37.16451644897461,71.11603,75.7301,5.280121,4.943329,0.203687921,-0.2901081084420242,5.233437108442025,0.24182692685786278,0.0,64.0,-0.08146044,0.141419873,-0.5255512258064516,-0.80811356,58.74448774193549,-11.889928580645163,-900.0,-3.1422878331184974,4.899123289997074,-0.8169911500000001,7.1,5.226160398515943,26.9518318,27.96318,FLAPS_3,69277.0,152.11528794999955,140.0,113.6,183.0,12.995432682855343,13.6,7.761995574413318,15.0,0,0,0.0,150.0,-83.00885,0.0160966832,25.43515,25.3931141,-6.21418571,-0.3944939,-0.3956554,-6.926394,6.86218643,-2.704329,-26.0000134,14.0,1,0,0,0,57.26924,57.1788139,,472.0,134.4,150.0,8.1,10.0,-0.018711646908200145,0.0,0.057270830382422776,0.0908995503824243,0.456272535604373,25.414380233163577,0.456272535604373,0.456272535604373,-7,-0.35,-0.6,-0.0,0.2,0.0045,0.06,-7.725041551439546e-07,0.005,0.0,0.005,0.0,11.730099999999993,2.7098918915579757,WAITING_CAPTURE
0.005208300004596822,1,11,Approach,2665.14526,152.002945,161.871552,-81.31398,55.93156814575195,37.16468811035156,71.14169,75.77768,5.271637,4.95550537,0.2094681,-0.28420976191845243,5.2397151319184525,0.2417870492377415,0.0,64.0,-0.08225644,0.142327115,-0.5306867096774194,-0.8132978000000001,58.69313290322581,-11.95918296774194,-900.0,-3.142563341149342,4.897623289997074,-0.81868602,7.1,5.226160398515943,26.9518318,27.96318,FLAPS_3,69277.0,152.11503794999956,140.0,113.6,183.0,12.995532376905647,13.6,7.7558172449871945,15.0,0,0,0.0,150.0,-81.31398,0.0151247121,25.43515,25.3931141,-6.21418571,-0.315180153,-0.316887826,-6.790617,6.782388,-2.52446628,-26.0000134,14.0,1,0,0,0,57.27979,57.18942,,472.0,134.4,150.0,8.1,10.0,-0.025041749805791047,0.0,0.07785520092415102,0.11148392092415255,0.45627423031708386,25.414474628661573,0.45627423031708386,0.45627423031708386,-7,-0.35,-0.6,-0.0,0.2,0.0045,0.06,-1.0329735151571228e-06,0.005,0.0,0.005,0.0,11.777680000000004,2.7157902380815475,WAITING_CAPTURE
0.005635500005155336,1,11,Approach,2664.8186,152.002945,161.859146,-80.56312,55.93156814575195,37.16468811035156,71.16107,75.82471,5.250992,4.968506,0.209592074,-0.28160697028049103,5.25011297028049,0.2417870492377415,0.0,64.0,-0.08225644,0.142327115,-0.5306867096774194,-0.8132978000000001,58.69313290322581,-11.992103967741926,-900.0,-3.142803726018104,4.896123289997074,-0.81943688,7.1,5.226160398515943,26.9518318,27.96318,FLAPS_3,69277.0,152.11478794999957,140.0,113.6,183.0,12.995532376905647,13.6,7.745419406625157,15.0,0,0,0.0,150.0,-80.56312,0.0145149417,25.43515,25.3931141,-6.21418571,-0.261256248,-0.263094723,-6.61245632,6.616846,-2.33816648,-26.0000134,14.0,1,0,0,0,57.289402,57.1990356,,472.0,134.4,150.0,8.1,10.0,-0.03176550280542616,0.0,0.07773470668757472,0.11136342668757625,0.4562759215135658,25.414568828305615,0.4562759215135658,0.4562759215135658,-7,-0.35,-0.6,-0.0,0.2,0.0045,0.06,-1.3586957101702895e-06,0.005,0.0,0.005,0.0,11.824709999999982,2.718393029719509,WAITING_CAPTURE
0.007948700003908016,1,11,Approach,2664.689,151.981812,161.859146,-79.5327454,55.93156814575195,37.16468811035156,71.16766,75.8446045,5.23858643,4.97419739,0.208097145,-0.27800537086725097,5.252202760867251,0.24175336793500857,0.0,64.0,-0.0830558,0.143240258,-0.5358438709677419,-0.8185157600000001,58.641561290322585,-12.042130246774192,-900.0,-3.142803726018104,4.892653489998945,-0.8204672546,7.1,5.226160398515943,26.9518318,27.96318,FLAPS_3,69277.0,152.11420964999988,140.0,113.6,183.0,12.995616580162478,13.6,7.7434138192952275,15.0,0,0,0.0,150.0,-79.5327454,0.0143048242,25.43515,25.3931141,-6.21418571,-0.1825587,-0.184697375,-5.855428,5.883084,-2.08999419,-26.0000134,14.0,1,0,0,0,57.296524,57.2061539,,472.0,134.4,150.0,8.1,10.0,-0.03509737404400911,0.0,0.09511816733416414,0.12874688733416567,0.4562805469581692,25.414826465570027,0.4562805469581692,0.4562805469581692,-7,-0.35,-0.6,-0.0,0.2,0.0045,0.06,-2.2075187823835698e-06,0.005,0.0,0.005,0.0,11.844604500000003,2.721994629132749,WAITING_CAPTURE
0.008378200000151992,1,11,Approach,2663.47241,151.957153,161.844421,-77.90088,55.93156814575195,37.164859771728516,71.1734,75.86435,5.224228,4.979904,0.204525858,-0.27232607392437985,5.25223007392438,0.24171346910499894,0.0,64.0,-0.0830558,0.143240258,-0.5358438709677419,-0.8185157600000001,58.641561290322585,-12.055952096774192,-900.0,-3.1430890926782293,4.891153489998945,-0.82209912,7.1,5.226160398515943,26.9518318,27.96318,FLAPS_3,69277.0,152.11395964999988,140.0,113.6,183.0,12.995716327237503,13.6,7.743486253313122,15.0,0,0,0.0,150.0,-77.90088,0.0140992207,25.43515,25.3931141,-6.21418571,-0.131592825,-0.133249417,-5.49562025,5.5098,-1.88775992,-26.0000134,14.0,1,0,0,0,57.3081932,57.2178078,,472.0,134.4,150.0,8.1,10.0,-0.038153108094471484,0.0,0.11559394923689306,0.1492226692368946,0.45628291226120116,25.414958212948907,0.45628291226120116,0.45628291226120116,-7,-0.35,-0.6,-0.0,0.2,0.0045,0.06,-2.60689607738832e-06,0.005,0.0,0.005,0.0,11.864350000000002,2.72767392607562,WAITING_CAPTURE
0.008828300000459421,1,11,Approach,2663.1875,151.957153,161.844421,-77.05751,55.93156814575195,37.164859771728516,71.17978,75.89041,5.20239258,4.98742676,0.19846195,-0.26937786283923065,5.256804622839231,0.24171346910499894,0.0,64.0,-0.0830558,0.143240258,-0.5358438709677419,-0.8185157600000001,58.641561290322585,-12.074194096774193,-900.0,-3.1430890926782293,4.889653489998945,-0.8229424900000001,7.1,5.226160398515943,26.9518318,27.96318,FLAPS_3,69277.0,152.1137096499999,140.0,113.6,183.0,12.995716327237503,13.6,7.738911704398272,15.0,0,0,0.0,150.0,-77.05751,0.0138794137,25.43515,25.3931141,-6.21418571,-0.08992116,-0.09119859,-5.17052126,5.18246031,-1.69537055,-26.0000134,14.0,1,0,0,0,57.31656,57.22614,,472.0,134.4,150.0,8.1,10.0,-0.04210754798041523,0.0,0.1154535482404325,0.14908226824043402,0.45628527315485395,25.415089714725365,0.45628527315485395,0.45628527315485395,-7,-0.35,-0.6,-0.0,0.2,0.0045,0.06,-3.0468757923930693e-06,0.005,0.0,0.005,0.0,11.890410000000003,2.7306221371607693,WAITING_CAPTURE
0.009296900003391784,1,11,Approach,2662.131,151.935883,161.829544,-75.89407,55.93156814575195,37.164859771728516,71.18704,75.928894,5.164322,4.99838257,0.185953423,-0.2653351542451664,5.263717724245167,0.2416797635623936,0.0,64.0,-0.0830558,0.143240258,-0.5358438709677419,-0.8185157600000001,58.641561290322585,-12.10113289677418,-900.0,-3.143377457638505,4.8881534899989445,-0.82410593,7.1,5.226160398515943,26.9518318,27.96318,FLAPS_3,69277.0,152.1134596499999,140.0,113.6,183.0,12.995800591094016,13.6,7.732082866848849,15.0,0,0,0.0,150.0,-75.89407,0.01352431,25.43515,25.3931141,-6.21418571,-0.057834018,-0.0585665479,-4.58237267,4.58635235,-1.51527119,-26.0000134,14.0,1,0,0,0,57.329895,57.239418,,472.0,134.4,150.0,8.1,10.0,-0.047765277999801535,0.0,0.13308675554716567,0.1667154755471672,0.4562879484828818,25.415238730496515,0.4562879484828818,0.4562879484828818,-7,-0.35,-0.6,-0.0,0.2,0.0045,0.06,-3.542906652397821e-06,0.005,0.0,0.005,0.0,11.928894000000014,2.7346648457548337,WAITING_CAPTURE
0.00972850000107428,1,11,Approach,2661.589,151.9111,161.816544,-74.1144257,55.93156814575195,37.16503143310547,71.18982,75.947876,5.14328,5.00363159,0.178668633,-0.2591341975355104,5.2627657875355105,0.24163984049251153,0.0,64.0,-0.0839217156,0.144228533,-0.5414304232258065,-0.8241630457142857,58.58569576774194,-12.153526162580638,-900.0,-3.14362948347421,4.886653489998944,-0.8258855743000001,7.1,5.226160398515943,26.9518318,27.96318,FLAPS_3,69277.0,152.1132096499999,140.0,113.6,183.0,12.995900398768722,13.6,7.733134611233211,15.0,0,0,0.0,150.0,-74.1144257,0.0133933872,25.43515,25.3931141,-6.21418571,-0.04208135,-0.04237947,-4.215377,4.21902466,-1.31007278,-26.0000134,14.0,1,0,0,0,57.34407,57.25351,,472.0,134.4,150.0,8.1,10.0,-0.050558125507777794,0.0,0.15364616145501425,0.18727488145501575,0.45629099048692773,25.415408170121875,0.45629099048692773,0.45629099048692773,-7,-0.35,-0.6,-0.0,0.2,0.0045,0.06,-4.069308102402573e-06,0.005,0.0,0.005,0.0,11.947876000000008,2.7408658024644894,WAITING_CAPTURE
0.010148300003493205,1,11,Approach,2660.90942,151.9111,161.816544,-72.91614,55.93156814575195,37.16503143310547,71.19278,75.97287,5.11329651,5.01034546,0.168532118,-0.254944558770166,5.265290018770166,0.24163984049251153,0.0,64.0,-0.0839217156,0.144228533,-0.5414304232258065,-0.8241630457142857,58.58569576774194,-12.171021962580653,-900.0,-3.14362948347421,4.885153489998944,-0.82708386,7.1,5.226160398515943,26.9518318,27.96318,FLAPS_3,69277.0,152.1129596499999,140.0,113.6,183.0,12.995900398768722,13.6,7.730610379998556,15.0,0,0,0.0,150.0,-72.91614,0.0132470448,25.43515,25.3931141,-6.21418571,-0.0418315269,-0.0419731624,-3.80308318,3.82129455,-1.20261908,-26.0000134,14.0,1,0,0,0,57.3539352,57.2633553,,472.0,134.4,150.0,8.1,10.0,-0.05407514358536111,0.0,0.15348577357060048,0.18711449357060198,0.45629402718212225,25.41557731404421,0.45629402718212225,0.45629402718212225,-7,-0.35,-0.6,-0.0,0.2,0.0045,0.06,-4.632671967407322e-06,0.005,0.0,0.005,0.0,11.97287,2.745055441229834,WAITING_CAPTURE
0.010575500004051719,1,11,Approach,2660.87231,151.886429,161.801163,-72.0131149,55.93156814575195,37.16503143310547,71.19641,76.01593,5.05603027,5.02124,0.150513366,-0.25181119056477935,5.273051190564779,0.24160005680189586,0.0,64.0,-0.08473119,0.145149648,-0.5466528387096774,-0.82942656,58.53347161290323,-12.237720870967728,-900.0,-3.143927720957436,4.883653489998944,-0.8279868851,7.1,5.226160398515943,26.9518318,27.96318,FLAPS_3,69277.0,152.1127096499999,140.0,113.6,183.0,12.99599985799526,13.6,7.722948667430481,15.0,0,0,0.0,150.0,-72.0131149,0.0132634314,25.43515,25.3931141,-6.21418571,-0.0702935159,-0.06984912,-3.32236934,3.33833838,-1.00903535,-26.0000134,14.0,1,0,0,0,57.3692551,57.2786674,,472.0,134.4,150.0,8.1,10.0,-0.05967007713364034,0.0,0.17394096820924643,0.20756968820924795,0.4562974283950294,25.415766761603138,0.4562974283950294,0.4562974283950294,-7,-0.35,-0.6,-0.0,0.2,0.0045,0.06,-5.251811262412071e-06,0.005,0.0,0.005,0.0,12.015929999999997,2.7481888094352205,WAITING_CAPTURE
0.011101600000984035,1,11,Approach,2660.74365,151.886429,161.785522,-71.11493,55.93156814575195,37.16520309448242,71.19751,76.03406,5.029846,5.02557373,0.143335223,-0.24869455105955157,5.274268281059551,0.24160005680189586,0.0,64.0,-0.08473119,0.145149648,-0.5466528387096774,-0.82942656,58.53347161290323,-12.250411870967739,-900.0,-3.1442310578169455,4.882153489998944,-0.8288850700000001,7.1,5.226160398515943,26.9518318,27.96318,FLAPS_3,69277.0,152.11245964999992,140.0,113.6,183.0,12.99599985799526,13.6,7.721731576935709,15.0,0,0,0.0,150.0,-71.11493,0.013234783,25.43515,25.3931141,-6.21418571,-0.0969290957,-0.09597633,-3.36016369,3.36013222,-0.918174267,-26.0000134,14.0,1,0,0,0,57.3797836,57.2891541,,472.0,134.4,150.0,8.1,10.0,-0.06197400619614509,0.0,0.1737700393656109,0.20739875936561242,0.4563008238228538,25.41595588693296,0.4563008238228538,0.4563008238228538,-7,-0.35,-0.6,-0.0,0.2,0.0045,0.06,-5.89720234241682e-06,0.005,0.0,0.005,0.0,12.03406000000001,2.7513054489404483,WAITING_CAPTURE
0.011557800004084129,1,11,Approach,2659.662,151.865143,161.771942,-69.0532761,55.93156814575195,37.16520309448242,71.1994,76.07559,4.964966,5.03494263,0.128711969,-0.24150514178483654,5.276447771784836,0.24156619067013568,0.0,64.0,-0.08473119,0.145149648,-0.5466528387096774,-0.82942656,58.53347161290323,-12.279482870967733,-900.0,-3.1444944716900114,4.880653489998944,-0.8309467239,7.1,5.226160398515943,26.9518318,27.96318,FLAPS_3,69277.0,152.11220964999993,140.0,113.6,183.0,12.996084523324662,13.6,7.719636751539825,15.0,0,0,0.0,150.0,-69.0532761,0.0132858586,25.43515,25.3931141,-6.21418571,-0.15424104,-0.153156877,-3.268193,3.27159119,-0.7746472,-26.0000134,14.0,1,0,0,0,57.40144,57.3106232,,472.0,134.4,150.0,8.1,10.0,-0.06678613057201832,0.0,0.1913861805277243,0.22501490052772583,0.4563045325519384,25.41616246314297,0.4563045325519384,0.4563045325519384,-7,-0.35,-0.6,-0.0,0.2,0.0045,0.06,-6.59150347242157e-06,0.005,0.0,0.005,0.0,12.075590000000005,2.7584948582151636,WAITING_CAPTURE
0.011971600004471838,1,11,Approach,2659.13013,151.840347,161.771942,-67.90011,55.93156814575195,37.16520309448242,71.1994,76.07559,4.964966,5.03494263,0.128711969,-0.237472135072433,5.2724147650724325,0.24152640697952005,0.0,64.0,-0.08473119,0.145149648,-0.5466528387096774,-0.82942656,58.53347161290323,-12.279482870967733,-900.0,-3.1444944716900114,4.879153489998944,-0.83209989,7.1,5.226160398515943,26.9518318,27.96318,FLAPS_3,69277.0,152.11195964999993,140.0,113.6,183.0,12.9961839825512,13.6,7.723769217478767,15.0,0,0,0.0,150.0,-67.90011,0.0132858586,25.43515,25.3931141,-6.21418571,-0.185149938,-0.18404004,-3.30306482,3.3040657,-0.7132343,-26.0000134,14.0,1,0,0,0,57.4069557,57.3160934,,472.0,134.4,150.0,8.1,10.0,-0.06690767134176057,0.0,0.21192609807932886,0.24555481807933038,0.4563086067813801,25.41638939772287,0.4563086067813801,0.4563086067813801,-7,-0.35,-0.6,-0.0,0.2,0.0045,0.06,-7.292554602426321e-06,0.005,0.0,0.005,0.0,12.075590000000005,2.762527864927567,WAITING_CAPTURE
0.012519900003098883,1,11,Approach,2658.451,151.840347,161.75589,-66.48802,55.93156814575195,37.165374755859375,71.2008362,76.11618,4.89465332,5.043457,0.117498107,-0.2325566573051086,5.276013657305109,0.24152640697952005,0.0,64.0,-0.08560889,0.14614521,-0.5523154193548387,-0.8351154857142857,58.476845806451614,-12.347533935483874,-900.0,-3.144805892289698,4.877653489998944,-0.83351198,7.1,5.226160398515943,26.9518318,27.96318,FLAPS_3,69277.0,152.11170964999994,140.0,113.6,183.0,12.9961839825512,13.6,7.720170325246091,15.0,0,0,0.0,150.0,-66.48802,0.0133435614,25.43515,25.3931141,-6.21418571,-0.237703741,-0.236576125,-3.14100146,3.13645053,-0.6277507,-26.0000134,14.0,1,0,0,0,57.42369,57.3327026,,472.0,134.4,150.0,8.1,10.0,-0.07128096059397133,0.0,0.21173544468596622,0.24536416468596775,0.4563126743339181,25.416615960399238,0.4563126743339181,0.4563126743339181,-7,-0.35,-0.6,-0.0,0.2,0.0045,0.06,-8.038670397431074e-06,0.005,0.0,0.005,0.0,12.116179999999986,2.7674433426948912,WAITING_CAPTURE
0.012998600002902094,1,11,Approach,2658.028,151.808777,161.739578,-65.38525,55.93156814575195,37.165374755859375,71.20206,76.15018,4.83009338,5.05021667,0.110579185,-0.22872257984850705,5.2789392498485075,0.24147677432574022,0.0,64.0,-0.08560889,0.14614521,-0.5523154193548387,-0.8351154857142857,58.476845806451614,-12.371333935483868,-900.0,-3.145122420214338,4.876153489998944,-0.83461475,7.1,5.226160398515943,26.9518318,27.96318,FLAPS_3,69277.0,152.11145964999994,140.0,113.6,183.0,12.996308064185648,13.6,7.71736881433714,15.0,0,0,0.0,150.0,-65.38525,0.0133184846,25.43515,25.3931141,-6.21418571,-0.289767772,-0.288906,-2.96379113,2.97415948,-0.5494079,-26.0000134,14.0,1,0,0,0,57.44632,57.3552437,,472.0,134.4,150.0,8.1,10.0,-0.07476643207493662,0.0,0.23792534776278276,0.2715540677627843,0.45631720845490575,25.41686851093825,0.45631720845490575,0.45631720845490575,-7,-0.35,-0.6,-0.0,0.2,0.0045,0.06,-8.821954707435824e-06,0.005,0.0,0.005,0.0,12.150180000000006,2.771277420151493,WAITING_CAPTURE
0.013551800002460368,1,11,Approach,2657.227,151.794617,161.739578,-64.29871,55.93156814575195,37.165374755859375,71.20206,76.15018,4.83009338,5.05021667,0.110579185,-0.22492181962865937,5.2751384896286595,0.24145391158106846,0.0,64.0,-0.08560889,0.14614521,-0.5523154193548387,-0.8351154857142857,58.476845806451614,-12.371333935483868,-900.0,-3.145122420214338,4.874653489998944,-0.83570129,7.1,5.226160398515943,26.9518318,27.96318,FLAPS_3,69277.0,152.11120964999995,140.0,113.6,183.0,12.996365221047329,13.6,7.721226731418669,15.0,0,0,0.0,150.0,-64.29871,0.0133184846,25.43515,25.3931141,-6.21418571,-0.296717942,-0.295915,-2.886713,2.89654231,-0.538833737,-26.0000134,14.0,1,0,0,0,57.45201,57.3609238,,472.0,134.4,150.0,8.1,10.0,-0.07486799571967528,0.0,0.2495535243721524,0.2831822443721539,0.4563219475490097,25.41713247847984,0.4563219475490097,0.4563219475490097,-7,-0.35,-0.6,-0.0,0.2,0.0045,0.06,-9.611989017440578e-06,0.005,0.0,0.005,0.0,12.150180000000006,2.7750781803713407,WAITING_CAPTURE
0.014000900002429262,1,11,Approach,2657.17334,151.794617,161.725433,-62.9545135,55.93156814575195,37.16554641723633,71.20383,76.1890259,4.749954,5.057617,0.104128726,-0.22023902487127894,5.277856024871278,0.24145391158106846,0.0,64.0,-0.0863653049,0.1470017,-0.5571955154838709,-0.8400097142857144,58.42804484516129,-12.432686738387096,-900.0,-3.1453969498944785,4.873153489998944,-0.8370454865000001,7.1,5.226160398515943,26.9518318,27.96318,FLAPS_3,69277.0,152.11095964999996,140.0,113.6,183.0,12.996365221047329,13.6,7.718509196176051,15.0,0,0,0.0,150.0,-62.9545135,0.0132153276,25.43515,25.3931141,-6.21418571,-0.317511946,-0.3167463,-3.01276159,3.00815654,-0.511362,-26.0000134,14.0,1,0,0,0,57.4691238,57.3780174,,472.0,134.4,150.0,8.1,10.0,-0.07866521705302304,0.0,0.2493434950937043,0.2829722150937058,0.45632667908715996,25.41739602515481,0.45632667908715996,0.45632667908715996,-7,-0.35,-0.6,-0.0,0.2,0.0045,0.06,-1.0442074812445328e-05,0.005,0.0,0.005,0.0,12.18902589999999,2.779760975128721,WAITING_CAPTURE
0.014495400006126147,1,11,Approach,2656.17261,151.762924,161.725433,-61.6458168,55.93156814575195,37.16554641723633,71.20474,76.20538,4.71405029,5.06063843,0.101941831,-0.21566074576419994,5.2762991757642,0.2414030714786435,0.0,64.0,-0.0863653049,0.1470017,-0.5571955154838709,-0.8400097142857144,58.42804484516129,-12.444134608387095,-900.0,-3.1453969498944785,4.871653489998944,-0.8383541832,7.1,5.226160398515943,26.9518318,27.96318,FLAPS_3,69277.0,152.11070964999996,140.0,113.6,183.0,12.996492321303391,13.6,7.720193145539191,15.0,0,0,0.0,150.0,-61.6458168,0.0132381031,25.43515,25.3931141,-6.21418571,-0.351585567,-0.3511131,-2.769343,2.76121879,-0.4714763,-26.0000134,14.0,1,0,0,0,57.4862366,57.3951073,,472.0,134.4,150.0,8.1,10.0,-0.08026623097689001,0.0,0.27561686121459117,0.3092455812145927,0.45633187816023707,25.417685613525205,0.45633187816023707,0.45633187816023707,-7,-0.35,-0.6,-0.0,0.2,0.0045,0.06,-1.1292507042450081e-05,0.005,0.0,0.005,0.0,12.205379999999991,2.7843392542358,WAITING_CAPTURE
0.014942200003133621,1,11,Approach,2656.1416,151.745377,161.708725,-60.8764229,55.93156814575195,37.16554641723633,71.2061157,76.22693,4.66494751,5.064575,0.09964317,-0.21299113942457026,5.27756613942457,0.24137534712455871,0.0,64.0,-0.0863653049,0.1470017,-0.5571955154838709,-0.8400097142857144,58.42804484516129,-12.45921960838709,-900.0,-3.145721284599397,4.870153489998944,-0.8391235771000001,7.1,5.226160398515943,26.9518318,27.96318,FLAPS_3,69277.0,152.11045964999997,140.0,113.6,183.0,12.996561632188602,13.6,7.718995492764032,15.0,0,0,0.0,150.0,-60.8764229,0.0129941646,25.43515,25.3931141,-6.21418571,-0.358493239,-0.3582571,-2.81087947,2.81458616,-0.463871181,-26.0000134,14.0,1,0,0,0,57.4975967,57.4064522,,472.0,134.4,150.0,8.1,10.0,-0.0823206834493492,0.0,0.2900559401551178,0.3236846601551194,0.4563373320995871,25.417989397947004,0.4563373320995871,0.4563373320995871,-7,-0.35,-0.6,-0.0,0.2,0.0045,0.06,-1.2167403837454832e-05,0.005,0.0,0.005,0.0,12.226929999999982,2.7870088605754297,WAITING_CAPTURE
0.015421800002513919,1,11,Approach,2654.6875,151.745377,161.708725,-59.8640671,55.93156814575195,37.16571807861328,71.20734,76.24289,4.627075,5.067459,0.09815769,-0.20944919546846244,5.2769081954684625,0.24137534712455871,0.0,64.0,-0.0872548,0.148004726,-0.562934193548387,-0.8457412914285715,58.37065806451613,-12.510562354838717,-900.0,-3.145721284599397,4.868653489998944,-0.8401359329,7.1,5.226160398515943,26.9518318,27.96318,FLAPS_3,69277.0,152.11020964999997,140.0,113.6,183.0,12.996561632188602,13.6,7.719653436720139,15.0,0,0,0.0,150.0,-59.8640671,0.0128620332,25.43515,25.3931141,-6.21418571,-0.3637566,-0.363529056,-2.92065978,2.91626644,-0.462914467,-26.0000134,14.0,1,0,0,0,57.50891,57.41774,,472.0,134.4,150.0,8.1,10.0,-0.0838448395035505,0.0,0.28982515008238696,0.32345387008238846,0.45634277753913716,25.41829270892994,0.45634277753913716,0.45634277753913716,-7,-0.35,-0.6,-0.0,0.2,0.0045,0.06,-1.3062028632459588e-05,0.005,0.0,0.005,0.0,12.242889999999989,2.7905508045315375,WAITING_CAPTURE
0.016064700001152232,1,11,Approach,2654.318,151.72081,161.691818,-59.1086121,55.93156814575195,37.16571807861328,71.2102356,76.27432,4.54862976,5.073059,0.0953814,-0.20682769713102245,5.2798866971310225,0.24133536799997168,0.0,64.0,-0.0872548,0.148004726,-0.562934193548387,-0.8457412914285715,58.37065806451613,-12.532563354838716,-900.0,-3.1460495503058414,4.867153489998944,-0.8408913879000001,7.1,5.226160398515943,26.9518318,27.96318,FLAPS_3,69277.0,152.10995964999998,140.0,113.6,183.0,12.99666158000007,13.6,7.716774882869048,15.0,0,0,0.0,150.0,-59.1086121,0.0126066711,25.43515,25.3931141,-6.21418571,-0.365397871,-0.3652644,-2.77238846,2.766255,-0.467822582,-26.0000134,14.0,1,0,0,0,57.52573,57.43452,,472.0,134.4,150.0,8.1,10.0,-0.08672176965868131,0.0,0.31012325216667347,0.343751972166675,0.45634858275286605,25.41861605933464,0.45634858275286605,0.45634858275286605,-7,-0.35,-0.6,-0.0,0.2,0.0045,0.06,-1.3988603427464338e-05,0.005,0.0,0.005,0.0,12.274319999999989,2.7931723028689777,WAITING_CAPTURE
0.01651240000501275,1,11,Approach,2653.89478,151.6995,161.67717,-57.6242943,55.93156814575195,37.16571807861328,71.2124939,76.29492,4.49449158,5.07667542,0.093587406,-0.20165221319886698,5.278327633198867,0.24130156701286865,0.0,64.0,-0.0872548,0.148004726,-0.562934193548387,-0.8457412914285715,58.37065806451613,-12.546983354838718,-900.0,-3.1463340106901474,4.865653489998944,-0.8423757057000001,7.1,5.226160398515943,26.9518318,27.96318,FLAPS_3,69277.0,152.10970964999999,140.0,113.6,183.0,12.996746082467828,13.6,7.718418449268961,15.0,0,0,0.0,150.0,-57.6242943,0.0123602664,25.43515,25.3931141,-6.21418571,-0.360295951,-0.360370159,-2.85186267,2.85052681,-0.484911978,-26.0000134,14.0,1,0,0,0,57.54234,57.4510765,,472.0,134.4,150.0,8.1,10.0,-0.0886011561981713,0.0,0.3276892707359672,0.3613179907359687,0.45635469844241977,25.41895670324278,0.45635469844241977,0.45635469844241977,-7,-0.35,-0.6,-0.0,0.2,0.0045,0.06,-1.4938202112469092e-05,0.005,0.0,0.005,0.0,12.29491999999999,2.798347786801133,WAITING_CAPTURE
0.01696490000176709,1,11,Approach,2652.87183,151.6995,161.659882,-56.6446953,55.93156814575195,37.165889739990234,71.21716,76.33023,4.39614868,5.082779,0.09024892,-0.19824540020800532,5.281024400208006,0.24130156701286865,0.0,64.0,-0.08808617,0.1489401,-0.568297870967742,-0.8510862857142857,58.31702129032258,-12.6092460967742,-900.0,-3.1466698053174933,4.864153489998944,-0.8433553047000001,7.1,5.226160398515943,26.9518318,27.96318,FLAPS_3,69277.0,152.10945965,140.0,113.6,183.0,12.996746082467828,13.6,7.715721682259822,15.0,0,0,0.0,150.0,-56.6446953,0.0120342746,25.43515,25.3931141,-6.21418571,-0.3544038,-0.354427338,-2.7752018,2.76895237,-0.5105116,-26.0000134,14.0,1,0,0,0,57.5586662,57.4673233,,472.0,134.4,150.0,8.1,10.0,-0.09171802959575343,0.0,0.32743939474174205,0.36106811474174355,0.45636080476081475,25.419296825177383,0.45636080476081475,0.45636080476081475,-7,-0.35,-0.6,-0.0,0.2,0.0045,0.06,-1.592201690747385e-05,0.005,0.0,0.005,0.0,12.33023,2.8017545997919946,WAITING_CAPTURE
0.039486400004534516,1,11,Approach,2659.87329,151.24765,161.324234,-31.0403175,55.93156814575195,37.16743469238281,71.36487,76.78378,2.18681335,5.153702,0.00521710468,-0.10886139255882439,5.262563392558825,0.2405805823074619,0.0,64.0,-0.0959728658,0.157742381,-0.6191797793548387,-0.9013850342857143,57.80820220645161,-13.282904455483866,-900.0,-3.1532035066118778,4.8303712399947925,-0.8689596825,7.1,5.226160398515943,26.9518318,27.96318,FLAPS_3,69277.0,152.1038292749993,140.0,113.6,183.0,12.998548544231344,13.6,7.735985151672519,15.0,0,0,0.0,150.0,-31.0403175,0.00498008076,25.4351521,25.3931141,-6.21418571,0.0589491725,0.0583887435,3.18111539,-3.16511726,0.951105237,-26.0000134,14.0,1,0,0,0,57.8087921,57.72483,,472.0,134.4,150.0,8.1,10.0,-0.12770501854088057,0.0,0.7004764368372348,0.7341068368372361,0.45664405766921906,25.4350740121755,0.45664405766921906,0.45664405766921906,-7,-0.35,-0.6,-0.0,0.2,0.0045,0.06,-4.869053861305818e-05,0.005,0.0,0.005,0.0,12.783779999999979,2.891138607441176,WAITING_CAPTURE
0.08451570000033826,1,11,Approach,2659.50073,151.233566,161.304855,-29.72729,55.93156814575195,37.167606353759766,71.37271,76.7897339,2.13635254,5.15344238,-0.00289075635,-0.10426901388200285,5.257711393882003,0.24055876642228044,0.0,64.0,-0.0959728658,0.157742381,-0.6191797793548387,-0.9013850342857143,57.80820220645161,-13.287072185483872,-900.0,-3.153581564678243,4.762827290001087,-0.87027271,7.1,5.226160398515943,26.9518318,27.96318,FLAPS_3,69277.0,152.09257195000035,140.0,113.6,183.0,12.9986030839443,13.6,7.740891690062297,15.0,0,0,0.0,150.0,-29.72729,0.004612377,25.4351521,25.3931141,-6.21418571,0.0676365644,0.06745368,1.714403,-1.735711,0.9050496,-26.0000134,14.0,1,0,0,0,57.812603,57.7291222,,472.0,134.4,150.0,8.1,10.0,-0.1284724278322814,0.0,0.6930698522874467,0.7267002522874478,0.4571849197949017,25.46520003257603,0.4571849197949017,0.4571849197949017,-7,-0.35,-0.6,-0.0,0.2,0.0045,0.06,-0.00012784159693007848,0.005,0.0,0.005,0.0,12.789733899999987,2.895730986117997,WAITING_CAPTURE
0.13067080000473652,1,11,Approach,2659.13086,151.233566,161.28537,-29.1597023,55.93156814575195,37.167606353759766,71.3941345,76.80295,2.02268982,5.151779,-0.0266419947,-0.10229055017895414,5.254069550178954,0.24055876642228044,0.0,64.0,-0.09691458,0.158785135,-0.6252553548387096,-0.9073436285714286,57.7474464516129,-13.338852483870966,-900.0,-3.1539617819806818,4.6935946399944894,-0.8708402976999999,7.1,5.226160398515943,26.9518318,27.96318,FLAPS_3,69277.0,152.08103317499925,140.0,113.6,183.0,12.9986030839443,13.6,7.744533533765345,15.0,0,0,0.0,150.0,-29.1597023,0.00191130245,25.4334621,25.3947868,-6.21418571,0.427474767,0.409817755,0.6165417,-0.6608823,0.8377315,-26.0000134,14.0,1,0,0,0,57.81612,57.7330437,,472.0,134.4,150.0,8.1,10.0,-0.13128604945148842,0.0,0.6764949985013833,0.7074352385013843,0.45770523718323286,25.494181711106073,0.45770523718323286,0.45770523718323286,-7,-0.35,-0.6,-0.0,0.2,0.0045,0.06,-0.00022300554923435355,0.005,0.0,0.005,0.0,12.80295000000001,2.897709449821046,WAITING_CAPTURE
0.17627380000340054,1,11,Approach,2659.11646,151.208908,161.28537,-28.4795132,55.93156814575195,37.167606353759766,71.40457,76.80844,1.97486877,5.15014648,-0.06173069,-0.09990449102652951,5.250050971026529,0.24051869185319572,0.0,64.0,-0.09691458,0.158785135,-0.6252553548387096,-0.9073436285714286,57.7474464516129,-13.34269548387097,-900.0,-3.1539617819806818,4.625190139996493,-0.8715204867999999,7.1,5.226160398515943,26.9518318,27.96318,FLAPS_3,69277.0,152.06963242499958,140.0,113.6,183.0,12.99870327036701,13.6,7.74865229934048,15.0,0,0,0.0,150.0,-28.4795132,-0.004469658,25.4334621,25.3947868,-6.21418571,1.93003058,1.90568435,-0.7401889,0.670239151,0.743030667,-26.0000134,14.0,1,0,0,0,57.818306,57.73541,,472.0,134.4,150.0,8.1,10.0,-0.13627173012214613,0.0,0.6814271800931008,0.7123674200931018,0.4582051313791749,25.522025817820044,0.4582051313791749,0.4582051313791749,-7,-0.35,-0.6,-0.0,0.2,0.0045,0.06,-0.00033073367711050714,0.005,0.0,0.005,0.0,12.808440000000019,2.9000955089734703,WAITING_CAPTURE
0.22465180000290275,1,11,Approach,2658.072,151.187653,161.2622,-26.31535,55.93156814575195,37.16777801513672,71.4194946,76.81558,1.911087,5.145935,-0.126232564,-0.09232600830494547,5.238261008304945,0.24048471058204152,0.0,64.0,-0.09691458,0.158785135,-0.6252553548387096,-0.9073436285714286,57.7474464516129,-13.347693483870966,-900.0,-3.1544140251448485,4.55262313999724,-0.8736846500000001,7.1,5.226160398515943,26.9518318,27.96318,FLAPS_3,69277.0,152.0575379249997,140.0,113.6,183.0,12.998788223544896,13.6,7.760527215239951,15.0,0,0,0.0,150.0,-26.31535,-0.009077566,25.50277,25.4674568,-6.21418571,2.860002,2.836295,-2.09747338,1.9982357,0.645588934,-26.0000134,14.0,1,0,0,0,57.8212929,57.73857,,472.0,134.4,150.0,8.1,10.0,-0.14229997143804413,0.0,0.6284568545435454,0.6567074145435461,0.4587177554975639,25.55057898121431,0.4587177554975639,0.4587177554975639,-7,-0.35,-0.6,-0.0,0.2,0.0045,0.06,-0.00045989826234363887,0.005,0.0,0.005,0.0,12.815580000000011,2.9076739916950545,WAITING_CAPTURE
0.2706315000032191,1,11,Approach,2657.72021,151.187653,161.238174,-25.2787037,55.93156814575195,37.16777801513672,71.44394,76.82593,1.813858,5.13380432,-0.25746575,-0.08870221120013305,5.222506531200134,0.24048471058204152,0.0,64.0,-0.09779229,0.159751788,-0.630918,-0.9128673600000001,57.69082,-13.394576999999998,-900.0,-3.1548831129781143,4.4836535899967656,-0.8747212963,7.1,5.226160398515943,26.9518318,27.96318,FLAPS_3,69277.0,152.04604299999963,140.0,113.6,183.0,12.998788223544896,13.6,7.776281692344762,15.0,0,0,0.0,150.0,-25.2787037,-0.0170401987,25.50277,25.4674568,-6.21418571,3.28810024,3.2655766,-2.91176939,2.79462552,0.5869945,-26.0000134,14.0,1,0,0,0,57.82416,57.7414169,,472.0,134.4,150.0,8.1,10.0,-0.1457907210931066,0.0,0.6151535784274219,0.6434041384274227,0.459177088980469,25.576163856212123,0.459177088980469,0.459177088980469,-7,-0.35,-0.6,-0.0,0.2,0.0045,0.06,-0.0005944200721860483,0.005,0.0,0.005,0.0,12.82593,2.911297788799867,WAITING_CAPTURE
0.3175632000056794,1,11,Approach,2657.15381,151.162125,161.238174,-22.8258152,55.93156814575195,37.16777801513672,71.457,76.8309,1.7638855,5.124588,-0.330998927,-0.08009511102316327,5.204683111023163,0.24044457995825183,0.0,64.0,-0.09779229,0.159751788,-0.630918,-0.9128673600000001,57.69082,-13.398056000000008,-900.0,-3.1548831129781143,4.413256039993075,-0.8771741848000001,7.1,5.226160398515943,26.9518318,27.96318,FLAPS_3,69277.0,152.034310074999,140.0,113.6,183.0,12.99888855010437,13.6,7.794205439081207,15.0,0,0,0.0,150.0,-22.8258152,-0.0194159839,25.5709114,25.5386944,-6.21418571,3.75843263,3.74220729,-4.268892,4.121292,0.48974672,-26.0000134,14.0,1,0,0,0,57.8272476,57.7441826,,472.0,134.4,150.0,8.1,10.0,-0.15254060936756514,0.0,0.5700977553331605,0.5958713553331599,0.45963664711883345,25.601761244519025,0.45963664711883345,0.45963664711883345,-7,-0.35,-0.6,-0.0,0.2,0.0045,0.06,-0.0007446481538574801,0.005,0.0,0.005,0.0,12.830899999999986,2.919904888976837,WAITING_CAPTURE
0.36404980000224896,1,11,Approach,2656.57642,151.136124,161.217041,-21.8181419,55.93156814575195,37.16794967651367,71.47522,76.83731,1.69523621,5.10876465,-0.4347048,-0.0765692551855141,5.185333905185514,0.2404033161204263,0.0,64.0,-0.09779229,0.159751788,-0.630918,-0.9128673600000001,57.69082,-13.402543,-900.0,-3.155295832598311,4.343526139998221,-0.8781818581,7.1,5.226160398515943,26.9518318,27.96318,FLAPS_3,69277.0,152.02268842499987,140.0,113.6,183.0,12.998991709698934,13.6,7.81365780451342,15.0,0,0,0.0,150.0,-21.8181419,-0.0225659925,25.5709114,25.5386944,-6.21418571,4.09484768,4.08555,-5.62594938,5.447976,0.39022094,-26.0000134,14.0,1,0,0,0,57.8296471,57.746315,,472.0,134.4,150.0,8.1,10.0,-0.1572698988922043,0.0,0.5810223738397744,0.6067959738397739,0.4600843158956491,25.626696395387654,0.4600843158956491,0.4600843158956491,-7,-0.35,-0.6,-0.0,0.2,0.0045,0.06,-0.0009047281681813864,0.005,0.0,0.005,0.0,12.837310000000002,2.923430744814486,WAITING_CAPTURE
0.40930890000163345,1,11,Approach,2656.116,151.136124,161.192169,-20.5627613,55.93156814575195,37.16794967651367,71.50415,76.8465,1.58648682,5.07696533,-0.597425342,-0.07217472372518567,5.149140053725186,0.2404033161204263,0.0,64.0,-0.09867336,0.160705939,-0.6366023225806452,-0.9183196514285714,57.63397677419355,-13.448766258064515,-900.0,-3.155781711708773,4.275637489999144,-0.8794372387,7.1,5.226160398515943,26.9518318,27.96318,FLAPS_3,69277.0,152.01137365000002,140.0,113.6,183.0,12.998991709698934,13.6,7.849851655973748,15.0,0,0,0.0,150.0,-20.5627613,-0.0257027671,25.5709114,25.5386944,-6.21418571,4.251093,4.24465275,-6.309444,6.237979,0.281275421,-26.0000134,14.0,1,0,0,0,57.83398,57.7502975,,472.0,134.4,150.0,8.1,10.0,-0.15544171663784592,0.0,0.5712186039207628,0.5969922039207622,0.4604972466103625,25.64969663619719,0.4604972466103625,0.4604972466103625,-7,-0.35,-0.6,-0.0,0.2,0.0045,0.06,-0.0010679313639743893,0.005,0.0,0.005,0.0,12.846499999999992,2.9278252762748145,WAITING_CAPTURE
0.45329680000577355,1,11,Approach,2655.212,151.109985,161.192169,-18.93817,55.93156814575195,37.16794967651367,71.52438,76.8522949,1.50950623,5.05033875,-0.7069755,-0.06647245850867692,5.116811208508677,0.24036198259296757,0.0,64.0,-0.09867336,0.160705939,-0.6366023225806452,-0.9183196514285714,57.63397677419355,-13.452822688064522,-900.0,-3.155781711708773,4.209655639992934,-0.88106183,7.1,5.226160398515943,26.9518318,27.96318,FLAPS_3,69277.0,152.000376674999,140.0,113.6,183.0,12.999095043517581,13.6,7.882283835008904,15.0,0,0,0.0,150.0,-18.93817,-0.0278041214,25.6324272,25.6030369,-6.21418571,4.3691473,4.367295,-6.50518131,6.47645235,0.175657779,-26.0000134,14.0,1,0,0,0,57.8393326,57.7553139,,472.0,134.4,150.0,8.1,10.0,-0.15747186184687853,0.0,0.5356291635169214,0.5591414035169208,0.46089532924930926,25.671869839186527,0.46089532924930926,0.46089532924930926,-7,-0.35,-0.6,-0.0,0.2,0.0045,0.06,-0.0012343408445761109,0.005,0.0,0.005,0.0,12.852294900000004,2.933527541491323,WAITING_CAPTURE
0.49736870000197086,1,11,Approach,2654.9856,151.087738,161.167282,-18.0547848,55.93156814575195,37.168121337890625,71.53998,76.85651,1.44943237,5.02749634,-0.7887831,-0.06338158890700024,5.090877928907,0.24032672872851116,0.0,64.0,-0.09867336,0.160705939,-0.6366023225806452,-0.9183196514285714,57.63397677419355,-13.45577325806451,-900.0,-3.156268033493465,4.143547789998638,-0.8819452152,7.1,5.226160398515943,26.9518318,27.96318,FLAPS_3,69277.0,151.98935869999994,140.0,113.6,183.0,12.999183178178722,13.6,7.908305249271722,15.0,0,0,0.0,150.0,-18.0547848,-0.0288430639,25.6324272,25.6030369,-6.213017,4.36139345,4.36021376,-6.484415,6.46896839,0.104450285,-26.0000134,14.0,1,0,0,0,57.8435822,57.7593536,,472.0,134.4,150.0,8.1,10.0,-0.16250331303069798,0.0,0.5465492265695796,0.570061466569579,0.4612889348727935,25.6937936724146,0.4612889348727935,0.4612889348727935,-7,-0.35,-0.6,-0.0,0.2,0.0045,0.06,-0.0014096486590146073,0.005,0.0,0.005,0.0,12.856510000000014,2.936618411093,WAITING_CAPTURE
0.5463090000048396,1,11,Approach,2654.67285,151.087738,161.146179,-17.5228558,55.93156814575195,37.168121337890625,71.57764,76.86575,1.30204773,4.964859,-0.9724206,-0.061522301377676364,5.026381301377676,0.24032672872851116,0.0,64.0,-0.09962603,0.1617133,-0.6427485806451613,-0.9240760000000001,57.572514193548386,-13.505265064516124,-900.0,-3.1566805287193973,4.070137339994335,-0.8824771442,7.1,5.226160398515943,26.9518318,27.96318,FLAPS_3,69277.0,151.97712362499922,140.0,113.6,183.0,12.999183178178722,13.6,7.972801876801046,15.0,0,0,0.0,150.0,-17.5228558,-0.03096103,25.6905289,25.6637154,-6.203621,4.25062656,4.25311327,-6.354719,6.35241032,-0.0422168076,-26.0000134,14.0,1,0,0,0,57.85112,57.7666359,,472.0,134.4,150.0,8.1,10.0,-0.15159330872155305,0.0,0.4921333387814769,0.5135841387814765,0.46170284308522985,25.716848359847305,0.46170284308522985,0.46170284308522985,-7,-0.35,-0.6,-0.0,0.2,0.0045,0.06,-0.0016066944180834462,0.005,0.0,0.005,0.0,12.865749999999991,2.9384776986223238,WAITING_CAPTURE
0.5891081000008853,1,11,Approach,2654.31665,151.062332,161.146179,-17.0091839,55.93156814575195,37.168121337890625,71.59421,76.8694458,1.236145,4.934189,-1.04656386,-0.05971881371742644,4.993907813717426,0.24028537399116404,0.0,64.0,-0.09962603,0.1617133,-0.6427485806451613,-0.9240760000000001,57.572514193548386,-13.507852124516125,-900.0,-3.1566805287193973,4.005938690000266,-0.8829908161,7.1,5.226160398515943,26.9518318,27.96318,FLAPS_3,69277.0,151.9664238500002,140.0,113.6,183.0,12.99928656502209,13.6,8.005378751304663,15.0,0,0,0.0,150.0,-17.0091839,-0.0317000039,25.6905289,25.6637154,-6.19593573,4.152945,4.1562233,-6.24427462,6.24528027,-0.118795544,-26.0000134,14.0,1,0,0,0,57.856987,57.77243,,472.0,134.4,150.0,8.1,10.0,-0.1557733246693626,0.0,0.507572185272887,0.5290229852728866,0.4620642996292062,25.736981489346785,0.4620642996292062,0.4620642996292062,-7,-0.35,-0.6,-0.0,0.2,0.0045,0.06,-0.0017854716683591218,0.005,0.0,0.005,0.0,12.869445799999994,2.9402811862825735,WAITING_CAPTURE
0.636499600004754,1,11,Approach,2655.278,151.03775,161.1221,-16.7323532,55.93156814575195,37.16829299926758,71.6279,76.8764,1.100235,4.8664856,-1.18362939,-0.05875564828947026,4.9252412482894705,0.24024646748093176,0.0,64.0,-0.100513,0.1626289,-0.6484709677419355,-0.929308,57.51529032258065,-13.552776774193553,-900.0,-3.1571513266803817,3.934851439994463,-0.8832676468,7.1,5.226160398515943,26.9518318,27.96318,FLAPS_3,69277.0,151.95457597499924,140.0,113.6,183.0,12.99938383129767,13.6,8.0741425830082,15.0,0,0,0.0,150.0,-16.7323532,-0.03303664,25.744091,25.71963,-6.176431,3.83273673,3.83814216,-6.04803,6.05108738,-0.271761566,-26.0000134,14.0,1,0,0,0,57.87099,57.7865143,,472.0,134.4,150.0,8.1,10.0,-0.14524479424534767,0.0,0.47927741934093326,0.4988462193409351,0.46246185227310815,25.759125171612126,0.46246185227310815,0.46246185227310815,-7,-0.35,-0.6,-0.0,0.2,0.0045,0.06,-0.0019841535996979014,0.005,0.0,0.005,0.0,12.87639999999999,2.94124435171053,WAITING_CAPTURE
0.6853305000040564,1,11,Approach,2656.489,151.014038,161.102051,-17.2330551,55.93156814575195,37.16829299926758,71.6506042,76.88068,1.00708008,4.81706238,-1.2645582,-0.06052139231240776,4.877583772312408,0.24020876387436846,0.0,64.0,-0.100513,0.1626289,-0.6484709677419355,-0.929308,57.51529032258065,-13.55577277419355,-900.0,-3.157543436234443,3.8616050899955097,-0.8827669449000001,7.1,5.226160398515943,26.9518318,27.96318,FLAPS_3,69277.0,151.94236824999942,140.0,113.6,183.0,12.999478090314078,13.6,8.121894318001669,15.0,0,0,0.0,150.0,-17.2330551,-0.034093827,25.744091,25.71963,-6.15724564,3.560196,3.56705546,-5.890212,5.89355135,-0.39641133,-26.0000134,14.0,1,0,0,0,57.8836441,57.799408,,472.0,134.4,150.0,8.1,10.0,-0.14639327678488362,0.0,0.49344653544873895,0.5130153354487408,0.4628680339606697,25.781749491609304,0.4628680339606697,0.4628680339606697,-7,-0.35,-0.6,-0.0,0.2,0.0045,0.06,-0.0021941048769160633,0.005,0.0,0.005,0.0,12.880679999999984,2.939478607687592,WAITING_CAPTURE
0.7354497000051197,1,11,Approach,2657.38037,151.014038,161.079422,-17.7683449,55.93156814575195,37.16846466064453,71.69052,76.88751,0.8403473,4.72348,-1.38572526,-0.062410060889800806,4.785890060889801,0.24020876387436846,0.0,64.0,-0.100513,0.1626289,-0.6484709677419355,-0.929308,57.51529032258065,-13.560553774193556,-900.0,-3.157986121200246,3.7864262899939147,-0.8822316551,7.1,5.226160398515943,26.9518318,27.96318,FLAPS_3,69277.0,151.92983844999915,140.0,113.6,183.0,12.999478090314078,13.6,8.213588029424276,15.0,0,0,0.0,150.0,-17.7683449,-0.0358850621,25.744091,25.71963,-6.140614,3.29712152,3.30357766,-5.77769041,5.7806344,-0.493322849,-26.0000134,14.0,1,0,0,0,57.89822,57.8143349,,472.0,134.4,150.0,8.1,10.0,-0.12848487069707493,0.0,0.48807937929351897,0.5076481792935208,0.46326421737629275,25.803816907859506,0.46326421737629275,0.46326421737629275,-7,-0.35,-0.6,-0.0,0.2,0.0045,0.06,-0.0024054445972819635,0.005,0.0,0.005,0.0,12.88751000000002,2.9375899391101994,WAITING_CAPTURE
0.7782561000058195,1,11,Approach,2658.716,150.994568,161.079422,-18.4917431,55.93156814575195,37.16846466064453,71.71323,76.89096,0.743499756,4.66654968,-1.44298148,-0.06495094401887108,4.731500624018871,0.24017838828423735,0.0,64.0,-0.101401649,0.163527,-0.6542041870967742,-0.93444,57.45795812903226,-13.60310130967743,-900.0,-3.157986121200246,3.722216689992865,-0.8815082569,7.1,5.226160398515943,26.9518318,27.96318,FLAPS_3,69277.0,151.91913684999898,140.0,113.6,183.0,12.999554029289406,13.6,8.268053405270535,15.0,0,0,0.0,150.0,-18.4917431,-0.037178196,25.7920227,25.7695122,-6.118716,3.00842786,3.01502419,-5.650867,5.65392733,-0.6089984,-26.0000134,14.0,1,0,0,0,57.908947,57.825367,,472.0,134.4,150.0,8.1,10.0,-0.1265647254659703,0.0,0.46236697810176913,0.4803753781017685,0.46360077750309336,25.8225633069223,0.46360077750309336,0.46360077750309336,-7,-0.35,-0.6,-0.0,0.2,0.0045,0.06,-0.0025873503279504237,0.005,0.0,0.005,0.0,12.890960000000007,2.935049055981129,WAITING_CAPTURE
0.8210259000043152,1,11,Approach,2659.27612,150.994568,161.0548,-20.124052,55.93156814575195,37.16846466064453,71.73016,76.89334,0.6703186,4.622467,-1.48074269,-0.07069511455595547,4.693162114555956,0.24017838828423735,0.0,64.0,-0.101401649,0.163527,-0.6542041870967742,-0.93444,57.45795812903226,-13.60476730967742,-900.0,-3.1584679355690666,3.6580619899951214,-0.879875948,7.1,5.226160398515943,26.9518318,27.96318,FLAPS_3,69277.0,151.90844439999935,140.0,113.6,183.0,12.999554029289406,13.6,8.30639191473345,15.0,0,0,0.0,150.0,-20.124052,-0.0376697034,25.7920227,25.7695122,-6.10514736,2.663671,2.67700553,-5.59234,5.59469843,-0.673403859,-26.0000134,14.0,1,0,0,0,57.9204636,57.837265,,472.0,134.4,150.0,8.1,10.0,-0.1313514649856714,0.0,0.4589721551592887,0.47698055515928806,0.46392340417558886,25.840533612580302,0.46392340417558886,0.46392340417558886,-7,-0.35,-0.6,-0.0,0.2,0.0045,0.06,-0.0027729636702299755,0.005,0.0,0.005,0.0,12.893339999999995,2.9293048854440444,WAITING_CAPTURE
0.8555995999995503,1,11,Approach,2660.0332,150.969986,161.0548,-22.3288479,55.93156814575195,37.168636322021484,71.74695,76.89557,0.5967865,4.577408,-1.50929379,-0.07844047883834299,4.655848478838343,0.2401382334205752,0.0,64.0,-0.101401649,0.163527,-0.6542041870967742,-0.93444,57.45795812903226,-13.60632830967742,-900.0,-3.1584679355690666,3.606201440002269,-0.8776711521,7.1,5.226160398515943,26.9518318,27.96318,FLAPS_3,69277.0,151.89980097500055,140.0,113.6,183.0,12.99965441644856,13.6,8.343805937610217,15.0,0,0,0.0,150.0,-22.3288479,-0.03820576,25.84083,25.8202763,-6.082026,2.28802252,2.297202,-5.506011,5.50795937,-0.77236104,-26.0000134,14.0,1,0,0,0,57.9392433,57.8567352,,472.0,134.4,150.0,8.1,10.0,-0.13065719065020068,0.0,0.4383314399953856,0.45477439999538616,0.46418830245397963,25.855288446686668,0.46418830245397963,0.46418830245397963,-7,-0.35,-0.6,-0.0,0.2,0.0045,0.06,-0.0029240655893044217,0.005,0.0,0.005,0.0,12.89557000000002,2.921559521161657,WAITING_CAPTURE
0.8988434000057168,1,11,Approach,2660.37085,150.955627,161.037323,-24.51632,55.93156814575195,37.168636322021484,71.76352,76.89758,0.523010254,4.53158569,-1.53301167,-0.08613432936333618,4.617720019363336,0.24011634178579244,0.0,64.0,-0.101401649,0.163527,-0.6542041870967742,-0.93444,57.45795812903226,-13.607735309677429,-900.0,-3.158810022499636,3.541335739993019,-0.8754836800000001,7.1,5.226160398515943,26.9518318,27.96318,FLAPS_3,69277.0,151.888990024999,140.0,113.6,183.0,12.999709145535519,13.6,8.381989126172183,15.0,0,0,0.0,150.0,-24.51632,-0.0391172171,25.84083,25.8202763,-6.06792545,2.132214,2.138486,-5.46618032,5.467904,-0.8289361,-26.0000134,14.0,1,0,0,0,57.95276,57.87082,,472.0,134.4,150.0,8.1,10.0,-0.13522838796321265,0.0,0.44765994593062547,0.46410290593062603,0.46451555087999336,25.87351618401563,0.46451555087999336,0.46451555087999336,-7,-0.35,-0.6,-0.0,0.2,0.0045,0.06,-0.003116765357878404,0.005,0.0,0.005,0.0,12.897580000000005,2.913865670636664,WAITING_CAPTURE
0.9468371000039042,1,11,Approach,2660.6416,150.955627,161.020782,-26.37747,55.93156814575195,37.168636322021484,71.80139,76.90167,0.3503418,4.42247,-1.57252181,-0.09268270329102858,4.515152703291029,0.24011634178579244,0.0,64.0,-0.102360219,0.164477617,-0.6603885096774194,-0.9398720971428571,57.39611490322581,-13.653888567741921,-900.0,-3.1591338567801723,3.469345189995738,-0.87362253,7.1,5.226160398515943,26.9518318,27.96318,FLAPS_3,69277.0,151.87699159999946,140.0,113.6,183.0,12.999709145535519,13.6,8.48455644224449,15.0,0,0,0.0,150.0,-26.37747,-0.0423641652,25.84083,25.8202763,-6.048932,1.94134057,1.947117,-5.425185,5.42645454,-0.894633055,-26.0000134,14.0,1,0,0,0,57.97457,57.8936348,,472.0,134.4,150.0,8.1,10.0,-0.11297373422641964,0.0,0.44501865123195283,0.4614616112319534,0.46486312338634894,25.89287597261964,0.46486312338634894,0.46486312338634894,-7,-0.35,-0.6,-0.0,0.2,0.0045,0.06,-0.0033226132957431868,0.005,0.0,0.005,0.0,12.901669999999996,2.9073172967089715,WAITING_CAPTURE
0.9923229000050924,1,11,Approach,2660.87354,150.9364,161.020782,-28.423914,55.93156814575195,37.16880798339844,71.81714,76.9030762,0.2763214,4.37503052,-1.58412206,-0.0998732940369055,4.474903814036906,0.24008469511735106,0.0,64.0,-0.102360219,0.164477617,-0.6603885096774194,-0.9398720971428571,57.39611490322581,-13.654872907741934,-900.0,-3.1591338567801723,3.4011164899939557,-0.871576086,7.1,5.226160398515943,26.9518318,27.96318,FLAPS_3,69277.0,151.86562014999916,140.0,113.6,183.0,12.999788262206621,13.6,8.524884448169715,15.0,0,0,0.0,150.0,-28.423914,-0.04412512,25.8867264,25.8679752,-6.02496433,1.8022058,1.80565178,-5.39089,5.391697,-0.9612544,-26.0000134,14.0,1,0,0,0,57.9901,57.90989,,472.0,134.4,150.0,8.1,10.0,-0.12107321171759944,0.0,0.42262862022852454,0.437629580228525,0.46519225666169717,25.911208696056534,0.46519225666169717,0.46519225666169717,-7,-0.35,-0.6,-0.0,0.2,0.0045,0.06,-0.003521959960285614,0.005,0.0,0.005,0.0,12.903076199999987,2.9001267059630944,WAITING_CAPTURE
1.03936529999919,1,11,Approach,2661.051,150.918869,161.002655,-33.8675,55.93156814575195,37.16880798339844,71.85263,76.90567,0.103927612,4.26329041,-1.602988,-0.11901380547609813,4.382304215476098,0.24005672381956597,0.0,64.0,-0.1032514,0.165347189,-0.666138064516129,-0.9448410800000001,57.33861935483871,-13.696935451612902,-900.0,-3.1594888174328877,3.330552890002809,-0.8661325000000001,7.1,5.226160398515943,26.9518318,27.96318,FLAPS_3,69277.0,151.85385955000064,140.0,113.6,183.0,12.999858190451086,13.6,8.617553974974989,15.0,0,0,0.0,150.0,-33.8675,-0.04853253,25.8867264,25.8679752,-5.995978,1.66664875,1.66933358,-5.372661,5.37302065,-1.02963185,-26.0000134,14.0,1,0,0,0,58.0235062,57.9448738,,472.0,134.4,150.0,8.1,10.0,-0.0993514564131807,0.0,0.4356936719317431,0.4506946319317435,0.4655309416972918,25.930073452539155,0.4655309416972918,0.4655309416972918,-7,-0.35,-0.6,-0.0,0.2,0.0045,0.06,-0.0037194119120590612,0.005,0.0,0.005,0.0,12.905669999999986,2.880986194523902,WAITING_CAPTURE
1.08356780000031,1,11,Approach,2661.40723,150.918869,160.985779,-37.3919449,55.93156814575195,37.16880798339844,71.86725,76.90643,0.0303039551,4.215103,-1.60648715,-0.131412792785789,4.346515792785789,0.24005672381956597,0.0,64.0,-0.1032514,0.165347189,-0.666138064516129,-0.9448410800000001,57.33861935483871,-13.69746745161289,-900.0,-3.159819352793817,3.2642491400011293,-0.8626080551,7.1,5.226160398515943,26.9518318,27.96318,FLAPS_3,69277.0,151.84280892500036,140.0,113.6,183.0,12.999858190451086,13.6,8.653342397665297,15.0,0,0,0.0,150.0,-37.3919449,-0.0498546325,25.9314919,25.9143848,-5.98142147,1.45432663,1.46169066,-5.37160254,5.37175274,-1.06102252,-26.0000134,14.0,1,0,0,0,58.04135,57.9635849,,472.0,134.4,150.0,8.1,10.0,-0.10822160631458852,0.0,0.3985568896261588,0.4122425696261592,0.4658372963560784,25.94713740703357,0.4658372963560784,0.4658372963560784,-7,-0.35,-0.6,-0.0,0.2,0.0045,0.06,-0.003908547441923553,0.005,0.0,0.005,0.0,12.90643,2.868587207214211,WAITING_CAPTURE
1.1163808999990579,1,11,Approach,2661.84155,150.9028,160.985779,-43.27114,55.93156814575195,37.16897964477539,71.88144,76.90704,-0.04310608,4.16690063,-1.6063571,-0.1520749452209366,4.318975575220937,0.24003115681412693,0.0,64.0,-0.1032514,0.165347189,-0.666138064516129,-0.9448410800000001,57.33861935483871,-13.697894451612887,-900.0,-3.159819352793817,3.2150294900030074,-0.8567288599999999,7.1,5.226160398515943,26.9518318,27.96318,FLAPS_3,69277.0,151.83460565000067,140.0,113.6,183.0,12.999922107964682,13.6,8.680946532743747,15.0,0,0,0.0,150.0,-43.27114,-0.0513006859,25.9314919,25.9143848,-5.957096,1.26459885,1.26881707,-5.37727356,5.377175,-1.10514152,-26.0000134,14.0,1,0,0,0,58.0695038,57.9931335,,472.0,134.4,150.0,8.1,10.0,-0.10822029408162834,0.0,0.41143819550695043,0.42512387550695085,0.46606629159480706,25.959892441830753,0.46606629159480706,0.46606629159480706,-7,-0.35,-0.6,-0.0,0.2,0.0045,0.06,-0.00404909973498545,0.005,0.0,0.005,0.0,12.907039999999995,2.8479250547790635,WAITING_CAPTURE
1.1650714999996126,1,11,Approach,2661.82666,150.8905,160.972351,-46.4857826,55.93156814575195,37.16897964477539,71.91293,76.9076843,-0.2133789,4.054886,-1.59181511,-0.16338626599641654,4.218272265996417,0.24001171492145099,0.0,64.0,-0.1032514,0.165347189,-0.666138064516129,-0.9448410800000001,57.33861935483871,-13.69834546161291,-900.0,-3.1600824045743443,3.1419935900021754,-0.8535142174,7.1,5.226160398515943,26.9518318,27.96318,FLAPS_3,69277.0,151.82243300000053,140.0,113.6,183.0,12.999970712696372,13.6,8.781698446699956,15.0,0,0,0.0,150.0,-46.4857826,-0.0543407,25.9314919,25.9143848,-5.93271351,0.946865141,0.951205134,-5.39217472,5.39184237,-1.13946033,-26.0000134,14.0,1,0,0,0,58.09926,58.0244,,472.0,134.4,150.0,8.1,10.0,-0.08942510101574348,0.0,0.4209425486624655,0.43462822866246587,0.4664013493093729,25.97855515653207,0.4664013493093729,0.4664013493093729,-7,-0.35,-0.6,-0.0,0.2,0.0045,0.06,-0.004249121491289808,0.005,0.0,0.005,0.0,12.9076843,2.8366137340035835,WAITING_CAPTURE
1.2085168000048725,1,11,Approach,2662.04883,150.8905,160.958008,-48.73154,55.931739807128906,37.16897964477539,71.92569,76.90765,-0.2858734,4.00735474,-1.5795579,-0.1712947760060152,4.178649516006016,0.24001171492145099,0.0,64.0,-0.104142576,0.166204572,-0.6718875870967742,-0.9497404114285715,57.28112412903226,-13.738568109677427,-900.0,-3.160363429349331,3.0768256399942855,-0.85126846,7.1,5.226160398515943,26.9518318,27.96318,FLAPS_3,69277.0,151.81157167499921,140.0,113.6,183.0,12.999970712696372,13.6,8.821321196690356,15.0,0,0,0.0,150.0,-48.73154,-0.0558330826,25.9713478,25.9556084,-5.9131794,0.729248464,0.73586607,-5.41077328,5.41035938,-1.16278958,-26.0000134,14.0,1,0,0,0,58.1199036,58.0461044,,472.0,134.4,150.0,8.1,10.0,-0.09933549679492347,0.0,0.3885929772670499,0.40118449726705074,0.46668991999797754,25.99462854388735,0.46668991999797754,0.46668991999797754,-7,-0.35,-0.6,-0.0,0.2,0.0045,0.06,-0.004431043512899986,0.005,0.0,0.005,0.0,12.90764999999999,2.828705223993985,WAITING_CAPTURE
1.2555265000046347,1,11,Approach,2662.3147,150.880646,160.958008,-58.44456,55.931739807128906,37.169151306152344,71.941925,76.90726,-0.382003784,3.944687,-1.55721831,-0.20543645325016288,4.1501234532501625,0.23999588022479013,0.0,64.0,-0.104142576,0.166204572,-0.6718875870967742,-0.9497404114285715,57.28112412903226,-13.73829510967742,-900.0,-3.160363429349331,3.006311089994642,-0.84155544,7.1,5.226160398515943,26.9518318,27.96318,FLAPS_3,69277.0,151.79981924999927,140.0,113.6,183.0,13.000010299438024,13.6,8.84988684618786,15.0,0,0,0.0,150.0,-58.44456,-0.0565966,25.9713478,25.9556084,-5.88873672,0.365723252,0.370330632,-5.43883848,5.438259,-1.1817652,-26.0000134,14.0,1,0,0,0,58.1520424,58.0798836,,472.0,134.4,150.0,8.1,10.0,-0.10345285922745916,0.0,0.39683035180306475,0.4094218718030656,0.4669975489517096,26.011763476610223,0.4669975489517096,0.4669975489517096,-7,-0.35,-0.6,-0.0,0.2,0.0045,0.06,-0.004629550977973587,0.005,0.0,0.005,0.0,12.907260000000008,2.794563546749837,WAITING_CAPTURE
1.3025389000031282,1,11,Approach,2662.49756,150.867371,160.945175,-63.77449,55.931739807128906,37.169151306152344,71.96466,76.90607,-0.525054932,3.85281372,-1.50911927,-0.22418919697542508,4.077002916975425,0.23997523694343714,0.0,64.0,-0.10510283,0.167114764,-0.6780827741935483,-0.9549415085714287,57.21917225806452,-13.780828419354826,-900.0,-3.1606149107712556,2.935792489996902,-0.83622551,7.1,5.226160398515943,26.9518318,27.96318,FLAPS_3,69277.0,151.78806614999965,140.0,113.6,183.0,13.000061907641406,13.6,8.923058990665982,15.0,0,0,0.0,150.0,-63.77449,-0.0594092049,26.0134449,25.9990711,-5.86916876,0.197263211,0.201231569,-5.464566,5.46403027,-1.19307065,-26.0000134,14.0,1,0,0,0,58.185482,58.11503,,472.0,134.4,150.0,8.1,10.0,-0.09342627750671052,0.0,0.3745200974373303,0.38601913743733135,0.46730329107120194,26.02879331266595,0.46730329107120194,0.46730329107120194,-7,-0.35,-0.6,-0.0,0.2,0.0045,0.06,-0.0048235521378976595,0.005,0.0,0.005,0.0,12.90607,2.7758108030245747,WAITING_CAPTURE
