time_s,active,flight_phase,control_mode,ra_ft,ias_kt,ground_speed_kt,vs_fpm,latitude_deg,longitude_deg,heading_deg,track_magnetic_deg,roll_deg,pitch_deg,body_pitch_rate_deg_s,flight_path_angle_deg,estimated_aoa_deg,mach,lateral_deviation,runway_heading_deg,loc_ddm,gs_ddm,loc_dots,gs_dots,target_heading_deg,target_roll_deg,target_vs_fpm,target_flight_path_angle_deg,target_pitch_deg,vertical_correction_deg,configured_aoa_deg,reference_aoa_deg,flaps_angle_deg,slats_angle_deg,flap_configuration,landing_weight_kg,target_ias_kt,vapp_kt,vsr1_kt,vfe_kt,alpha_prot_deg,alpha_sw_deg,alpha_margin_deg,roll_limit_deg,flare_armed,flare_active,flare_progress,flare_entry_ra_ft,flare_entry_vs_fpm,body_norm_accel_g,left_throttle_angle_deg,right_throttle_angle_deg,stabilizer_angle_deg,elevator_left_angle_deg,elevator_right_angle_deg,aileron_left_angle_deg,aileron_right_angle_deg,rudder_angle_deg,wind_direction_true_deg,wind_speed_kt,nose_gear_wow,left_gear_wow,right_gear_wow,main_gear_touchdown,eng_left_thrust,eng_right_thrust,envelope_warnings,touchdown_vs_limit_fpm,touchdown_speed_min_kt,touchdown_speed_max_kt,touchdown_pitch_limit_deg,aileron_cmd_deg,elevator_cmd,rudder_cmd_deg,throttle_left_rate_cmd_deg_s,throttle_right_rate_cmd_deg_s,throttle_cmd_norm,throttle_target_angle_deg,throttle_left_position_cmd_norm,throttle_right_position_cmd_norm,roll_kp,roll_ki,roll_kd,roll_i_term,pitch_kp,pitch_ki,pitch_kd,pitch_i_term,speed_kp,speed_ki,speed_kd,speed_i_term,criteria_course_error_deg,criteria_glideslope_error_deg,criteria_status
0.0008882999991328688,1,11,Approach,2012.69922,173.768921,180.457245,-239.872208,55.935001373291016,37.190093994140625,69.29602,69.30359,-0.126190186,0.635376,0.08159145,-0.7520185183456507,1.3873945183456509,0.27342124626473596,0.0,64.0,-0.101918839,-0.0907546952,-0.6575408967741936,0.5185982582857143,57.424591032258064,-8.315299277419365,-750.2945694609617,-2.3510480303780734,0.6338760000000001,-0.5104223614609618,7.1,2.0,26.9518318,27.96318,FLAPS_3,69277.0,173.768671,140.0,113.6,183.0,12.91644688433816,13.6,11.52905236599251,15.0,0,0,0.0,150.0,-239.872208,0.0115564605,26.023798,25.9062824,-3.73263478,-0.507179856,-0.507151961,-0.561003,0.5610051,-0.0419277065,0.0,0.0,1,0,0,0,59.02724,58.7855949,,472.0,134.4,150.0,8.1,10.0,-0.0003000067499999892,0.0,-0.047075920699999385,0.04693655930000128,0.46615870970152595,25.965040130374998,0.46615870970152595,0.46615870970152595,-7,-0.35,-0.6,-0.0,0.2,0.0045,0.06,-6.749999999999756e-09,0.005,0.0,0.005,-0.0,5.303589999999986,2.2479814816543495,WAITING_CAPTURE
0.0018290999996679602,1,11,Approach,2013.86389,173.754974,180.457245,-238.1361,55.935001373291016,37.190093994140625,69.2956543,69.30322,-0.126022339,0.637786865,0.0786140561,-0.7465762994964054,1.3843631644964054,0.2733981532412762,0.0,64.0,-0.101918839,-0.0907546952,-0.6575408967741936,0.5185982582857143,57.424591032258064,-8.315040277419342,-750.2945694609617,-2.3510480303780734,0.6323760000000002,-0.5121584694609617,7.1,2.0,26.9518318,27.96318,FLAPS_3,69277.0,173.76842100000002,140.0,113.6,183.0,12.916504616896809,13.6,11.532141452400403,15.0,0,0,0.0,150.0,-238.1361,0.0115115717,26.023798,25.9062824,-3.73263478,-0.5076515,-0.507621467,-0.560942948,0.5609498,-0.0419798344,0.0,0.0,1,0,0,0,59.02716,58.78549,,472.0,134.4,150.0,8.1,10.0,-0.0018036584599605077,0.0,-0.03549138593844221,0.058521094061558455,0.4661589162671489,25.965051636080194,0.4661589162671489,0.4661589162671489,-7,-0.35,-0.6,-0.0,0.2,0.0045,0.06,-3.109889249999919e-08,0.005,0.0,0.005,0.0,5.30322000000001,2.2534237005035944,WAITING_CAPTURE
0.002295399999638903,1,11,Approach,2013.93066,173.738708,180.4424,-237.399551,55.935001373291016,37.190093994140625,69.2948,69.3024,-0.125610352,0.643051147,0.07182301,-0.7443286418400316,1.3873797888400317,0.27337129091765444,0.0,64.0,-0.102403179,-0.089987,-0.6606656709677419,0.5142114285714285,57.39334329032258,-8.3363396967742,-751.9705150427992,-2.3564873270156417,0.6308760000000002,-0.5145709640427992,7.1,2.0,26.9518318,27.96318,FLAPS_3,69277.0,173.76817100000002,140.0,113.6,183.0,12.916571772705865,13.6,11.529191983865832,15.0,0,0,0.0,150.0,-237.399551,0.0113668973,26.023798,25.9062824,-3.73263478,-0.507475,-0.5074587,-0.560662,0.56066823,-0.0420160145,0.0,0.0,1,0,0,0,59.02712,58.7854347,,472.0,134.4,150.0,8.1,10.0,-0.004728314340119895,0.0,-0.02197532657313409,0.07203715342686659,0.4661593651318374,25.965076637843346,0.4661593651318374,0.4661593651318374,-7,-0.35,-0.6,-0.0,0.2,0.0045,0.06,-8.588705399999819e-08,0.005,0.0,0.005,0.0,5.302400000000006,2.2556713581599683,WAITING_CAPTURE
0.0027473999998619547,1,11,Approach,2015.23364,173.722244,180.424942,-235.70105,55.935001373291016,37.19026565551758,69.29431,69.30194,-0.125366211,0.6458435,0.06804635,-0.7390753524748471,1.384918852474847,0.2733449149064733,0.0,64.0,-0.102403179,-0.089987,-0.6606656709677419,0.5142114285714285,57.39334329032258,-8.336017696774197,-751.8778608634066,-2.3564250290188244,0.6293760000000003,-0.5161768108634066,7.1,2.0,26.9518318,27.96318,FLAPS_3,69277.0,173.76792100000003,140.0,113.6,183.0,12.916637712733817,13.6,11.53171886025897,15.0,0,0,0.0,150.0,-235.70105,0.0112698823,26.023798,25.9062824,-3.73263478,-0.50739,-0.507371247,-0.5608457,0.560845733,-0.0420566164,0.0,0.0,1,0,0,0,59.02705,58.7853546,,472.0,134.4,150.0,8.1,10.0,-0.0064110367872099675,0.0,-0.008301086906197665,0.085711393093803,0.466160058939499,25.965115282930096,0.466160058939499,0.466160058939499,-7,-0.35,-0.6,-0.0,0.2,0.0045,0.06,-1.5999080399999706e-07,0.005,0.0,0.005,0.0,5.301940000000002,2.2609246475251528,WAITING_CAPTURE
0.0032594999993307283,1,11,Approach,2015.58533,173.722244,180.424942,-234.982178,55.935001373291016,37.19026565551758,69.2939453,69.3015747,-0.125198364,0.6478424,0.06526056,-0.7368214723500902,1.3846638723500901,0.2733449149064733,0.0,64.0,-0.102403179,-0.089987,-0.6606656709677419,0.5142114285714285,57.39334329032258,-8.335761986774198,-751.8778608634066,-2.3564250290188244,0.6278760000000003,-0.5168956828634066,7.1,2.0,26.9518318,27.96318,FLAPS_3,69277.0,173.76767100000004,140.0,113.6,183.0,12.916637712733817,13.6,11.531973840383726,15.0,0,0,0.0,150.0,-234.982178,0.0111935148,26.023798,25.9062824,-3.73263478,-0.5072137,-0.5072371,-0.560941041,0.5609346,-0.0420804,0.0,0.0,1,0,0,0,59.0270042,58.7853,,472.0,134.4,150.0,8.1,10.0,-0.007693531974878484,0.0,-0.008391689244777303,0.08562079075522336,0.4661607505672455,25.965153806595573,0.4661607505672455,0.4661607505672455,-7,-0.35,-0.6,-0.0,0.2,0.0045,0.06,-2.498396039999958e-07,0.005,0.0,0.005,0.0,5.301574700000003,2.26317852764991,WAITING_CAPTURE
0.004066099998453865,1,11,Approach,2015.42871,173.7083,180.40741,-234.033768,55.93517303466797,37.19043731689453,69.29358,69.30121,-0.125030518,0.649749756,0.06253299,-0.733919225581298,1.383668981581298,0.27332126588093975,0.0,64.0,-0.102888353,-0.08921518,-0.6637958258064516,0.5098010285714286,57.362041741935485,-8.357417780645159,-753.5489739466287,-2.3618857083583022,0.6263760000000004,-0.5195152059466287,7.1,2.0,26.9518318,27.96318,FLAPS_3,69277.0,173.76742100000004,140.0,113.6,183.0,12.91669683529765,13.6,11.533027853716352,15.0,0,0,0.0,150.0,-234.033768,0.0111074066,26.023798,25.9062824,-3.73263478,-0.5077001,-0.5076959,-0.560807765,0.5608105,-0.0421140268,0.0,0.0,1,0,0,0,59.02696,58.7852478,,472.0,134.4,150.0,8.1,10.0,-0.008927433183361365,0.0,0.0031694791790002896,0.09718195917900097,0.4661616490375877,25.96520385139364,0.4661616490375877,0.4661616490375877,-7,-0.35,-0.6,-0.0,0.2,0.0045,0.06,-3.5502150599999383e-07,0.005,0.0,0.005,0.0,5.3012099999999975,2.266080774418702,WAITING_CAPTURE
0.00446409999858588,1,11,Approach,2016.47754,173.7083,180.40741,-233.329,55.93517303466797,37.19043731689453,69.29309,69.30075,-0.124786377,0.652191162,0.05897747,-0.7317093459240518,1.3839005079240518,0.27332126588093975,0.0,64.0,-0.102888353,-0.08921518,-0.6637958258064516,0.5098010285714286,57.362041741935485,-8.357095780645155,-753.5489739466287,-2.3618857083583022,0.6248760000000004,-0.5202199739466287,7.1,2.0,26.9518318,27.96318,FLAPS_3,69277.0,173.76717100000005,140.0,113.6,183.0,12.91669683529765,13.6,11.532796327373598,15.0,0,0,0.0,150.0,-233.329,0.0110215768,26.023798,25.9062824,-3.73263478,-0.5081617,-0.5081455,-0.560755134,0.560762048,-0.04214927,0.0,0.0,1,0,0,0,59.0269127,58.7851944,,472.0,134.4,150.0,8.1,10.0,-0.010425222525835241,0.0,0.0030726885591050093,0.09708516855910568,0.4661625450534042,25.965253759474617,0.4661625450534042,0.4661625450534042,-7,-0.35,-0.6,-0.0,0.2,0.0045,0.06,-4.779397349999921e-07,0.005,0.0,0.005,0.0,5.300749999999994,2.2682906540759484,WAITING_CAPTURE
0.005144199998539989,1,11,Approach,2016.645,173.691818,180.389832,-232.633682,55.93517303466797,37.19043731689453,69.29236,69.30005,-0.124450684,0.655563354,0.053841915,-0.729600176601447,1.3851635306014471,0.2732948898697586,0.0,64.0,-0.102888353,-0.08921518,-0.6637958258064516,0.5098010285714286,57.362041741935485,-8.35660578064516,-753.4556828958002,-2.361823496466558,0.6233760000000005,-0.5208220008958002,7.1,2.0,26.9518318,27.96318,FLAPS_3,69277.0,173.76692100000005,140.0,113.6,183.0,12.916762775325603,13.6,11.531599244724156,15.0,0,0,0.0,150.0,-232.633682,0.0107940827,26.023798,25.9062824,-3.73263478,-0.5085989,-0.508590639,-0.560780346,0.560782969,-0.04218407,0.0,0.0,1,0,0,0,59.026844,58.7851257,,472.0,134.4,150.0,8.1,10.0,-0.012384191792136318,0.0,0.016748468595423324,0.11076094859542399,0.4661636856823914,25.9653172925092,0.4661636856823914,0.4661636856823914,-7,-0.35,-0.6,-0.0,0.2,0.0045,0.06,-6.227828279999898e-07,0.005,0.0,0.005,0.0,5.300049999999999,2.270399823398553,WAITING_CAPTURE
0.005581099998380523,1,11,Approach,2016.99683,173.691818,180.374634,-231.716644,55.93517303466797,37.19043731689453,69.29199,69.29968,-0.124282837,0.657150269,0.05136674,-0.7267856399872143,1.3839359089872143,0.2732948898697586,0.0,64.0,-0.102888353,-0.08921518,-0.6637958258064516,0.5098010285714286,57.362041741935485,-8.356346780645156,-753.3750231284496,-2.3617696980698972,0.6218760000000005,-0.5216583791284496,7.1,2.0,26.9518318,27.96318,FLAPS_3,69277.0,173.76667100000006,140.0,113.6,183.0,12.916762775325603,13.6,11.53282686633839,15.0,0,0,0.0,150.0,-231.716644,0.0106906248,26.023798,25.9062824,-3.73263478,-0.50883764,-0.508830249,-0.560805,0.560801864,-0.0422086678,0.0,0.0,1,0,0,0,59.0268,58.78508,,472.0,134.4,150.0,8.1,10.0,-0.013446963532722183,0.0,0.01664439768300717,0.11065687768300785,0.46616482353267985,25.96538067077027,0.46616482353267985,0.46616482353267985,-7,-0.35,-0.6,-0.0,0.2,0.0045,0.06,-7.815170384999872e-07,0.005,0.0,0.005,0.0,5.299679999999995,2.2732143600127857,WAITING_CAPTURE
0.006061699999918346,1,11,Approach,2017.69617,173.675156,180.374634,-230.369949,55.93517303466797,37.190608978271484,69.29147,69.2992249,-0.124053955,0.6591339,0.0481735133,-0.7225621431491305,1.3816960431491305,0.2732669640217343,0.0,64.0,-0.103410594,-0.08837944,-0.6671651225806451,0.5050253714285715,57.32834877419355,-8.379613288064519,-755.2852859855925,-2.3677514104172412,0.6203760000000006,-0.5249153369855925,7.1,2.0,26.9518318,27.96318,FLAPS_3,69277.0,173.76642100000007,140.0,113.6,183.0,12.916832589945663,13.6,11.535136546796533,15.0,0,0,0.0,150.0,-230.369949,0.010548423,26.023798,25.9062824,-3.73263478,-0.509432554,-0.5094399,-0.5606408,0.560641944,-0.0422477648,0.0,0.0,1,0,0,0,59.02673,58.7850075,,472.0,134.4,150.0,8.1,10.0,-0.014705591314002526,0.0,0.030463329125978517,0.12447580912597919,0.4661662083708149,25.965457806254392,0.4661662083708149,0.4661662083708149,-7,-0.35,-0.6,-0.0,0.2,0.0045,0.06,-9.559275884999849e-07,0.005,0.0,0.005,0.0,5.299224900000013,2.2774378568508693,WAITING_CAPTURE
0.00643829999899026,1,11,Approach,2018.02832,173.660889,180.356888,-229.4895,55.93517303466797,37.190608978271484,69.29074,69.29852,-0.123718262,0.6618805,0.0436025932,-0.7198716964838551,1.381752196483855,0.2732438103985934,0.0,64.0,-0.103410594,-0.08837944,-0.6671651225806451,0.5050253714285715,57.32834877419355,-8.379119858064508,-755.191103314754,-2.3676891701467206,0.6188760000000006,-0.5257016033147539,7.1,2.0,26.9518318,27.96318,FLAPS_3,69277.0,173.76617100000007,140.0,113.6,183.0,12.916890474003516,13.6,11.53513827751966,15.0,0,0,0.0,150.0,-229.4895,0.0103170145,26.023798,25.9062824,-3.73263478,-0.510074854,-0.510073662,-0.560513258,0.560507834,-0.04229025,0.0,0.0,1,0,0,0,59.02666,58.78494,,472.0,134.4,150.0,8.1,10.0,-0.016342349804801034,0.0,0.04227360793689329,0.13628608793689395,0.46616780396620455,25.965546680917594,0.46616780396620455,0.46616780396620455,-7,-0.35,-0.6,-0.0,0.2,0.0045,0.06,-1.1494478384999818e-06,0.005,0.0,0.005,0.0,5.298519999999996,2.280128303516145,WAITING_CAPTURE
0.010061299999506446,1,11,Approach,2018.75513,173.660889,180.341629,-228.840057,55.93517303466797,37.19078063964844,69.2903748,69.29816,-0.123550415,0.663162231,0.04141529,-0.7178954424061526,1.3810576734061526,0.2732438103985934,0.0,64.0,-0.103410594,-0.08837944,-0.6671651225806451,0.5050253714285715,57.32834877419355,-8.378867858064506,-755.1101198044234,-2.3676356426937817,0.6134414999992264,-0.5262700628044235,7.1,2.0,26.9518318,27.96318,FLAPS_3,69277.0,173.76526524999994,140.0,113.6,183.0,12.916890474003516,13.6,11.535832800597364,15.0,0,0,0.0,150.0,-228.840057,0.0101954956,26.023798,25.9062824,-3.73263478,-0.510662436,-0.510656536,-0.560378969,0.5603851,-0.04232111,0.0,0.0,1,0,0,0,59.02662,58.784893,,472.0,134.4,150.0,8.1,10.0,-0.01792851090582867,0.0,0.041847007619381864,0.13585948761938255,0.4661735404335572,25.965866202149137,0.4661735404335572,0.4661735404335572,-7,-0.35,-0.6,-0.0,0.2,0.0045,0.06,-1.9600697764865884e-06,0.005,0.0,0.005,0.0,5.298159999999996,2.2821045575938474,WAITING_CAPTURE
0.010551099998338032,1,11,Approach,2018.94385,173.6441,180.341629,-227.357773,55.93517303466797,37.19078063964844,69.28989,69.2977,-0.123321533,0.664749146,0.0386035927,-0.7132458428021126,1.3779949888021126,0.27321691626013916,0.0,64.0,-0.103896618,-0.08759926,-0.6703007612903226,0.5005672,57.29699238709677,-8.400495329032259,-756.893388375852,-2.373220667044085,0.6119414999992264,-0.5295356153758521,7.1,2.0,26.9518318,27.96318,FLAPS_3,69277.0,173.76501524999995,140.0,113.6,183.0,12.916957709349653,13.6,11.53896272054754,15.0,0,0,0.0,150.0,-227.357773,0.0100280568,26.023798,25.9062824,-3.73263478,-0.510755539,-0.5107461,-0.5602029,0.5602085,-0.04234874,0.0,0.0,1,0,0,0,59.0265427,58.7848244,,472.0,134.4,150.0,8.1,10.0,-0.01898120542593835,0.0,0.05575873577035714,0.14977121577035782,0.4661753720772916,25.965968224705144,0.4661753720772916,0.4661753720772916,-7,-0.35,-0.6,-0.0,0.2,0.0045,0.06,-2.1977041834900697e-06,0.005,0.0,0.005,0.0,5.29770000000002,2.2867541571978873,WAITING_CAPTURE
0.011056099998313584,1,11,Approach,2019.75476,173.627319,180.323715,-226.737869,55.93517303466797,37.19078063964844,69.28903,69.296875,-0.122940063,0.667297363,0.0339459851,-0.7113719931560627,1.3786693561560628,0.27318942218484243,0.0,64.0,-0.103896618,-0.08759926,-0.6703007612903226,0.5005672,57.29699238709677,-8.399917829032264,-756.7983140850031,-2.3731583698213656,0.6104414999992265,-0.530060445085003,7.1,2.0,26.9518318,27.96318,FLAPS_3,69277.0,173.76476524999995,140.0,113.6,183.0,12.917026444537893,13.6,11.53835708838183,15.0,0,0,0.0,150.0,-226.737869,0.009723354,26.023798,25.9062824,-3.73263478,-0.5117599,-0.5117444,-0.560607135,0.5606006,-0.0424012579,0.0,0.0,1,0,0,0,59.0264778,58.7847557,,472.0,134.4,150.0,8.1,10.0,-0.020511679446593833,0.0,0.06965639881366975,0.16366887881367043,0.46617745156664536,25.966084052262147,0.46617745156664536,0.46617745156664536,-7,-0.35,-0.6,-0.0,0.2,0.0045,0.06,-2.4535555669935502e-06,0.005,0.0,0.005,0.0,5.296875,2.288628006843937,WAITING_CAPTURE
0.011482099998829653,1,11,Approach,2020.96191,173.610519,180.30574,-225.330566,55.93517303466797,37.19095230102539,69.28827,69.29617,-0.12260437,0.66922,0.03026736,-0.7070276123372627,1.376247612337263,0.27316145846201745,0.0,64.0,-0.104420543,-0.0867546648,-0.6736809225806452,0.4957409417142858,57.263190774193546,-8.42308545806452,-758.6334193654602,-2.379143150979879,0.6089414999992265,-0.5333028533654602,7.1,2.0,26.9518318,27.96318,FLAPS_3,69277.0,173.76451524999996,140.0,113.6,183.0,12.917096353844956,13.6,11.540848741507693,15.0,0,0,0.0,150.0,-225.330566,0.009446786,26.023798,25.9062824,-3.73263478,-0.511770844,-0.51177603,-0.5602161,0.560214758,-0.04245076,0.0,0.0,1,0,0,0,59.0263824,58.7846642,,472.0,134.4,150.0,8.1,10.0,-0.021726253391462384,0.0,0.08356258392085783,0.1775750639208585,0.4661797788563775,25.96621368230023,0.4661797788563775,0.4661797788563775,-7,-0.35,-0.6,-0.0,0.2,0.0045,0.06,-2.724808816997031e-06,0.005,0.0,0.005,0.0,5.296170000000018,2.2929723876627373,WAITING_CAPTURE
0.01186519999828306,1,11,Approach,2020.96191,173.610519,180.30574,-225.330566,55.93517303466797,37.19095230102539,69.28827,69.29617,-0.12260437,0.66922,0.03026736,-0.7070276123372627,1.376247612337263,0.27316145846201745,0.0,64.0,-0.104420543,-0.0867546648,-0.6736809225806452,0.4957409417142858,57.263190774193546,-8.42308545806452,-758.6334193654602,-2.379143150979879,0.6074414999992266,-0.5333028533654602,7.1,2.0,26.9518318,27.96318,FLAPS_3,69277.0,173.76426524999997,140.0,113.6,183.0,12.917096353844956,13.6,11.540848741507693,15.0,0,0,0.0,150.0,-225.330566,0.009446786,26.023798,25.9062824,-3.73263478,-0.5120467,-0.5120364,-0.5603079,0.560304761,-0.04246652,0.0,0.0,1,0,0,0,59.0263824,58.7846642,,472.0,134.4,150.0,8.1,10.0,-0.021978312898495625,0.0,0.0834231578063418,0.17743563780634247,0.46618210178460523,25.966343069402512,0.46618210178460523,0.46618210178460523,-7,-0.35,-0.6,-0.0,0.2,0.0045,0.06,-3.0028120670005117e-06,0.005,0.0,0.005,0.0,5.296170000000018,2.2929723876627373,WAITING_CAPTURE
0.012282199999390286,1,11,Approach,2021.50049,173.596146,180.290375,-223.976959,55.93517303466797,37.191123962402344,69.28778,69.2956848,-0.122390747,0.670379639,0.02794639,-0.7028406670210868,1.3732203060210868,0.2731383184738048,0.0,64.0,-0.104420543,-0.0867546648,-0.6736809225806452,0.4957409417142858,57.263190774193546,-8.42274581806451,-758.5518732853616,-2.3790902133991176,0.6059414999992266,-0.5345749142853616,7.1,2.0,26.9518318,27.96318,FLAPS_3,69277.0,173.76401524999997,140.0,113.6,183.0,12.917154203815489,13.6,11.543933897794401,15.0,0,0,0.0,150.0,-223.976959,0.009308651,26.023798,25.9062824,-3.73263478,-0.5124292,-0.512430847,-0.560012639,0.560012639,-0.0425042249,0.0,0.0,1,0,0,0,59.02632,58.7845955,,472.0,134.4,150.0,8.1,10.0,-0.022809576083146134,0.0,0.09529412548178175,0.1893066054817824,0.4661846358089111,25.96648421455635,0.4661846358089111,0.4661846358089111,-7,-0.35,-0.6,-0.0,0.2,0.0045,0.06,-3.2927836925039916e-06,0.005,0.0,0.005,0.0,5.295684800000004,2.297159332978913,WAITING_CAPTURE
0.012697199999820441,1,11,Approach,2021.87109,173.596146,180.2723,-223.414215,55.93517303466797,37.191123962402344,69.28705,69.29498,-0.122070313,0.6719513,0.0246993732,-0.7011452366450434,1.3730965366450434,0.2731383184738048,0.0,64.0,-0.104420543,-0.0867546648,-0.6736809225806452,0.4957409417142858,57.263190774193546,-8.422252458064513,-758.4559445253362,-2.379027927402073,0.6044414999992267,-0.5350417295253362,7.1,2.0,26.9518318,27.96318,FLAPS_3,69277.0,173.76376524999998,140.0,113.6,183.0,12.917154203815489,13.6,11.544057667170446,15.0,0,0,0.0,150.0,-223.414215,0.008969473,26.023798,25.9062824,-3.73263478,-0.5127748,-0.5127699,-0.559959352,0.559954345,-0.04253876,0.0,0.0,1,0,0,0,59.0262527,58.7845268,,472.0,134.4,150.0,8.1,10.0,-0.02384506409293577,0.0,0.09514861155199125,0.1891610915519919,0.46618716519724795,25.966625101486713,0.46618716519724795,0.46618716519724795,-7,-0.35,-0.6,-0.0,0.2,0.0045,0.06,-3.5965777925074718e-06,0.005,0.0,0.005,0.0,5.29498000000001,2.2988547633549565,WAITING_CAPTURE
0.013170499998523155,1,11,Approach,2021.92175,173.579132,180.2723,-222.311035,55.93517303466797,37.191123962402344,69.28656,69.2944946,-0.121856689,0.672897339,0.0226517,-0.6976834481698261,1.3705807871698261,0.27311036990090015,0.0,64.0,-0.104907408,-0.08596662,-0.6768219870967741,0.49123782857142856,57.23178012903226,-8.443900129677413,-760.2571897824791,-2.384671329164565,0.6029414999992267,-0.5379461547824792,7.1,2.0,26.9518318,27.96318,FLAPS_3,69277.0,173.76351524999998,140.0,113.6,183.0,12.917224075247749,13.6,11.546643288077922,15.0,0,0,0.0,150.0,-222.311035,0.008872745,26.023798,25.9062824,-3.73263478,-0.513532043,-0.5135225,-0.5598311,0.559832036,-0.042579744,0.0,0.0,1,0,0,0,59.0261879,58.78446,,472.0,134.4,150.0,8.1,10.0,-0.024566121537164885,0.0,0.10922035926281425,0.2032328392628149,0.46618994499635436,25.966779936296938,0.46618994499635436,0.46618994499635436,-7,-0.35,-0.6,-0.0,0.2,0.0045,0.06,-3.9113790680109515e-06,0.005,0.0,0.005,0.0,5.294494600000007,2.302316551830174,WAITING_CAPTURE
0.013757699998677708,1,11,Approach,2023.21667,173.564636,180.2542,-221.603119,55.93517303466797,37.1912956237793,69.28583,69.29379,-0.121536255,0.6741638,0.0198209882,-0.6955318259805167,1.3696956259805166,0.2730871602230543,0.0,64.0,-0.104907408,-0.08596662,-0.6768219870967741,0.49123782857142856,57.23178012903226,-8.443406909677428,-760.1611283409048,-2.3846095116791375,0.6014414999992268,-0.5385580093409048,7.1,2.0,26.9518318,27.96318,FLAPS_3,69277.0,173.76326525,140.0,113.6,183.0,12.917282099442364,13.6,11.547586473461847,15.0,0,0,0.0,150.0,-221.603119,0.008475554,26.023798,25.9062824,-3.73263478,-0.5142629,-0.5142511,-0.5598979,0.5599035,-0.04261596,0.0,0.0,1,0,0,0,59.02613,58.78439,,472.0,134.4,150.0,8.1,10.0,-0.025446007729148956,0.0,0.12118064146141083,0.2151931214614115,0.4661929371285449,25.966946598059955,0.4661929371285449,0.4661929371285449,-7,-0.35,-0.6,-0.0,0.2,0.0045,0.06,-4.23862941801443e-06,0.005,0.0,0.005,0.0,5.293790000000001,2.3044681740194832,WAITING_CAPTURE
0.014193399998475797,1,11,Approach,2023.86975,173.564636,180.2542,-220.91452,55.93517303466797,37.1912956237793,69.28583,69.29379,-0.121536255,0.6741638,0.0198209882,-0.6933707747726819,1.367534574772682,0.2730871602230543,0.0,64.0,-0.104907408,-0.08596662,-0.6768219870967741,0.49123782857142856,57.23178012903226,-8.443406909677428,-760.1611283409048,-2.3846095116791375,0.5999414999992269,-0.5392466083409048,7.1,2.0,26.9518318,27.96318,FLAPS_3,69277.0,173.76301525,140.0,113.6,183.0,12.917282099442364,13.6,11.549747524669682,15.0,0,0,0.0,150.0,-220.91452,0.008475554,26.023798,25.9062824,-3.73263478,-0.5143636,-0.514361739,-0.55988425,0.5598832,-0.042631004,0.0,0.0,1,0,0,0,59.0261078,58.7843666,,472.0,134.4,150.0,8.1,10.0,-0.025691991173621042,0.0,0.1210216477051004,0.21503412770510105,0.4661959240167589,25.967112967733474,0.4661959240167589,0.4661959240167589,-7,-0.35,-0.6,-0.0,0.2,0.0045,0.06,-4.57262976801791e-06,0.005,0.0,0.005,0.0,5.293790000000001,2.306629225227318,WAITING_CAPTURE
0.014642399999502231,1,11,Approach,2024.64722,173.54512,180.238632,-219.908554,55.93517303466797,37.19146728515625,69.28476,69.2927856,-0.121047974,0.67578125,0.016054811,-0.6902733285143965,1.3660545785143965,0.2730548908928901,0.0,64.0,-0.105282247,-0.085358046,-0.6792403032258064,0.4877602628571429,57.207596967741935,-8.459632042580637,-761.4695311723411,-2.388915277876871,0.5984414999992269,-0.5415609771723412,7.1,2.0,26.9518318,27.96318,FLAPS_3,69277.0,173.76276525,140.0,113.6,183.0,12.917362772767774,13.6,11.551308194253377,15.0,0,0,0.0,150.0,-219.908554,0.008172074,26.023798,25.9062824,-3.73263478,-0.5147514,-0.5147495,-0.5594683,0.559476,-0.04268536,0.0,0.0,1,0,0,0,59.02602,58.7842751,,472.0,134.4,150.0,8.1,10.0,-0.026745773652934225,0.0,0.13717065575233178,0.23118313575233246,0.46619919821394634,25.967295340516813,0.46619919821394634,0.46619919821394634,-7,-0.35,-0.6,-0.0,0.2,0.0045,0.06,-4.920658643021389e-06,0.005,0.0,0.005,0.0,5.292785600000002,2.3097266714856035,WAITING_CAPTURE
0.01507329999913054,1,11,Approach,2024.73523,173.530731,180.2153,-218.955643,55.93517303466797,37.19146728515625,69.28418,69.2922058,-0.120788574,0.676528931,0.0142386649,-0.6873714855718707,1.3639004165718707,0.273031726664805,0.0,64.0,-0.105282247,-0.085358046,-0.6792403032258064,0.4877602628571429,57.207596967741935,-8.459226182580657,-761.3457021361638,-2.3888361241230576,0.596941499999227,-0.5423900591361638,7.1,2.0,26.9518318,27.96318,FLAPS_3,69277.0,173.76251525,140.0,113.6,183.0,12.917420683337987,13.6,11.553520266766116,15.0,0,0,0.0,150.0,-218.955643,0.00775860576,26.023798,25.9062824,-3.73263478,-0.5145718,-0.5145789,-0.5595279,0.559536934,-0.04272986,0.0,0.0,1,0,0,0,59.02594,58.7841835,,472.0,134.4,150.0,8.1,10.0,-0.02736318863081575,0.0,0.1490270162200014,0.24303949622000207,0.46620268248476676,25.96748941440151,0.46620268248476676,0.46620268248476676,-7,-0.35,-0.6,-0.0,0.2,0.0045,0.06,-5.278802082524867e-06,0.005,0.0,0.005,0.0,5.292205800000005,2.3126285144281296,WAITING_CAPTURE
0.015474599998924532,1,11,Approach,2024.58936,173.516022,180.202286,-218.342163,55.93517303466797,37.19146728515625,69.28348,69.2915344,-0.1204834,0.6773224,0.0122194728,-0.6854952578854541,1.362817657885454,0.2730080549143911,0.0,64.0,-0.105920725,-0.08431853,-0.6833595161290322,0.4818201714285715,57.16640483870968,-8.487590692903225,-763.652670000374,-2.3962389969566575,0.595441499999227,-0.545310507000374,7.1,2.0,26.9518318,27.96318,FLAPS_3,69277.0,173.76226525,140.0,113.6,183.0,12.917479862714021,13.6,11.554662204828567,15.0,0,0,0.0,150.0,-218.342163,0.00743892835,26.023798,25.9062824,-3.73263478,-0.5139106,-0.5139263,-0.559468865,0.5594744,-0.0427594669,0.0,0.0,1,0,0,0,59.02588,58.7841148,,472.0,134.4,150.0,8.1,10.0,-0.02800263813282137,0.0,0.16114460952074783,0.2551570895207485,0.46620638134754366,25.967695441058183,0.46620638134754366,0.46620638134754366,-7,-0.35,-0.6,-0.0,0.2,0.0045,0.06,-5.647266132528346e-06,0.005,0.0,0.005,0.0,5.291534399999989,2.314504742114546,WAITING_CAPTURE
0.015888299998550792,1,11,Approach,2025.60291,173.516022,180.186615,-217.89502,55.93517303466797,37.1916389465332,69.28302,69.29111,-0.120269775,0.677780151,0.0109609189,-0.6841510558644356,1.3619312068644356,0.2730080549143911,0.0,64.0,-0.105920725,-0.08431853,-0.6833595161290322,0.4818201714285715,57.16640483870968,-8.487293612903215,-763.5694998981138,-2.3961864621797906,0.5939414999992271,-0.5456744798981138,7.1,2.0,26.9518318,27.96318,FLAPS_3,69277.0,173.76201525000002,140.0,113.6,183.0,12.917479862714021,13.6,11.555548655849586,15.0,0,0,0.0,150.0,-217.89502,0.007223862,26.023798,25.9062824,-3.73263478,-0.512343466,-0.512367964,-0.559024036,0.5590327,-0.0428007357,0.0,0.0,1,0,0,0,59.02584,58.78407,,472.0,134.4,150.0,8.1,10.0,-0.028473589128980348,0.0,0.16096490933875227,0.2549773893387529,0.4662100740299595,25.967901123468746,0.4662100740299595,0.4662100740299595,-7,-0.35,-0.6,-0.0,0.2,0.0045,0.06,-6.024540062031824e-06,0.005,0.0,0.005,0.0,5.291110000000003,2.3158489441355643,WAITING_CAPTURE
0.016388799998821924,1,11,Approach,2026.38635,173.498932,180.186615,-217.314743,55.93517303466797,37.1916389465332,69.28265,69.29077,-0.120117188,0.6781006,0.0100452248,-0.682329263250746,1.360429863250746,0.2729793897502579,0.0,64.0,-0.105920725,-0.08431853,-0.6833595161290322,0.4818201714285715,57.16640483870968,-8.48705561290322,-763.5694998981138,-2.3961864621797906,0.5924414999992271,-0.5462547568981138,7.1,2.0,26.9518318,27.96318,FLAPS_3,69277.0,173.76176525000002,140.0,113.6,183.0,12.917551525624354,13.6,11.557121662373609,15.0,0,0,0.0,150.0,-217.314743,0.00705956528,26.023798,25.9062824,-3.73263478,-0.5115775,-0.511590958,-0.5591412,0.5591356,-0.0428274646,0.0,0.0,1,0,0,0,59.0258,58.78403,,472.0,134.4,150.0,8.1,10.0,-0.028875605990785293,0.0,0.17506608045085076,0.26907856045085143,0.4662140167210791,25.968120731364106,0.4662140167210791,0.4662140167210791,-7,-0.35,-0.6,-0.0,0.2,0.0045,0.06,-6.4100060120353025e-06,0.005,0.0,0.005,0.0,5.290770000000009,2.317670736749254,WAITING_CAPTURE
0.01678409999840369,1,11,Approach,2026.65894,173.4818,180.168335,-216.477051,55.93517303466797,37.191810607910156,69.28186,69.28998,-0.119766235,0.6787262,0.007993457,-0.6797682643337182,1.358494464333718,0.2729513942126004,0.0,64.0,-0.106409274,-0.0835197642,-0.6865114451612904,0.47725579542857144,57.134885548387096,-8.508566116129037,-765.2982335493857,-2.4018485051609906,0.5909414999992272,-0.5488211825493857,7.1,2.0,26.9518318,27.96318,FLAPS_3,69277.0,173.76151525000003,140.0,113.6,183.0,12.917621514468498,13.6,11.55912705013478,15.0,0,0,0.0,150.0,-216.477051,0.00673001865,26.023798,25.9062824,-3.73263478,-0.509115,-0.509143054,-0.5587402,0.5587459,-0.04287812,0.0,0.0,1,0,0,0,59.02572,58.78395,,472.0,134.4,150.0,8.1,10.0,-0.02942979219601211,0.0,0.189195020233564,0.28320750023356467,0.46621820971919664,25.968354281359254,0.46621820971919664,0.46621820971919664,-7,-0.35,-0.6,-0.0,0.2,0.0045,0.06,-6.805037162038779e-06,0.005,0.0,0.005,0.0,5.289980000000014,2.320231735666282,WAITING_CAPTURE
0.017198599998664577,1,11,Approach,2027.83838,173.4818,180.150024,-215.94075,55.93517303466797,37.191810607910156,69.2814941,69.28967,-0.119613647,0.6789551,0.00714488467,-0.6781532776426531,1.3571083776426531,0.2729513942126004,0.0,64.0,-0.106409274,-0.0835197642,-0.6865114451612904,0.47725579542857144,57.134885548387096,-8.508349116129027,-765.2010522755368,-2.4017876783636902,0.5894414999992272,-0.5492603022755368,7.1,2.0,26.9518318,27.96318,FLAPS_3,69277.0,173.76126525000004,140.0,113.6,183.0,12.917621514468498,13.6,11.560513136825845,15.0,0,0,0.0,150.0,-215.94075,0.00650771754,26.023798,25.9062824,-3.73263478,-0.5080004,-0.508024633,-0.558707058,0.558705032,-0.042903956,0.0,0.0,1,0,0,0,59.02568,58.78391,,472.0,134.4,150.0,8.1,10.0,-0.02978529146087524,0.0,0.18900094323480487,0.28301342323480555,0.46622239588405556,25.968587450741897,0.46622239588405556,0.46622239588405556,-7,-0.35,-0.6,-0.0,0.2,0.0045,0.06,-7.207848362042257e-06,0.005,0.0,0.005,0.0,5.289670000000001,2.321846722357347,WAITING_CAPTURE
0.024137200000041048,1,11,Approach,2042.23083,173.17482,179.836777,-207.743866,55.93534469604492,37.19352722167969,69.2677,69.27594,-0.112915039,0.6724396,9.949027e-05,-0.6535498625881342,1.3259894625881343,0.27245177256714426,0.0,64.0,-0.110940985,-0.07602402,-0.7157482903225807,0.43442297142857145,56.842517096774195,-8.703396032258071,-780.671697986651,-2.4545506242609325,0.5790335999971625,-0.572927831986651,7.1,2.0,26.9518318,27.96318,FLAPS_3,69277.0,173.7595305999997,140.0,113.6,183.0,12.91887056858214,13.6,11.592881105994005,15.0,0,0,0.0,150.0,-207.743866,0.00163157377,26.0237961,25.9062824,-3.73263478,-0.6164989,-0.6163014,-0.423834473,0.4238827,0.00746907759,0.0,0.0,1,0,0,0,59.0238342,58.782177,,472.0,134.4,150.0,8.1,10.0,-0.028240628246771884,0.0,0.4443763082223074,0.5383872682223073,0.46628291820908935,25.971958544246277,0.46628291820908935,0.46628291820908935,-7,-0.35,-0.6,-0.0,0.2,0.0045,0.06,-1.0124329284909422e-05,0.005,0.0,0.005,0.0,5.275939999999991,2.346450137411866,WAITING_CAPTURE
0.07033789999877627,1,11,Approach,2043.09241,173.17482,179.821259,-207.749344,55.93534469604492,37.19369888305664,69.2674561,69.27545,-0.112335205,0.6725311,0.00472218171,-0.6536234904145737,1.3261545904145737,0.27245177256714426,0.0,64.0,-0.110940985,-0.07602402,-0.7157482903225807,0.43442297142857145,56.842517096774195,-8.703053032258062,-780.5893398954712,-2.4545035330815828,0.5097325499990597,-0.5728399958954713,7.1,2.0,26.9518318,27.96318,FLAPS_3,69277.0,173.747980425,140.0,113.6,183.0,12.91887056858214,13.6,11.592715978167567,15.0,0,0,0.0,150.0,-207.749344,0.00144223461,26.0237961,25.9062824,-3.73263478,-0.6209312,-0.620874941,-1.073501,1.05348265,0.00697399676,0.0,0.0,1,0,0,0,59.0237579,58.7820969,,472.0,134.4,150.0,8.1,10.0,-0.04020782366323508,0.0,0.42943548749768395,0.5234464474976839,0.46665959157628784,25.992939250799235,0.46665959157628784,0.46665959157628784,-7,-0.35,-0.6,-0.0,0.2,0.0045,0.06,-4.397066064461085e-05,0.005,0.0,0.005,0.0,5.275450000000006,2.3463765095854265,WAITING_CAPTURE
0.11511539999992237,1,11,Approach,2043.13928,173.157974,179.821259,-207.770065,55.93534469604492,37.19369888305664,69.267334,69.2750854,-0.112197876,0.672744751,0.008748728,-0.6536886774177515,1.3264334284177515,0.2724247905591525,0.0,64.0,-0.111434586,-0.07520126,-0.7189328129032259,0.42972148571428576,56.81067187096774,-8.725089470322569,-782.4699341811854,-2.4604096598433527,0.44256629999734054,-0.5746998691811855,7.1,2.0,26.9518318,27.96318,FLAPS_3,69277.0,173.73678604999972,140.0,113.6,183.0,12.918938023602118,13.6,11.592504595184367,15.0,0,0,0.0,150.0,-207.770065,0.0009906893,26.0237961,25.9062824,-3.73263478,-0.6211504,-0.621124148,-2.15138745,2.12508941,0.005825144,0.0,0.0,1,0,0,0,59.0236931,58.78202,,472.0,134.4,150.0,8.1,10.0,-0.05226225896589787,0.0,0.4304994240679317,0.5245103840679317,0.4670128620709646,26.012616417352728,0.4670128620709646,0.4670128620709646,-7,-0.35,-0.6,-0.0,0.2,0.0045,0.06,-9.035133079977011e-05,0.005,0.0,0.005,0.0,5.275085399999995,2.3463113225822485,WAITING_CAPTURE
0.1606683999998495,1,11,Approach,2044.19287,173.141144,179.803192,-207.830643,55.93534469604492,37.19369888305664,69.26727,69.27466,-0.112854004,0.6730652,0.0118496353,-0.6539449495505713,1.3270101495505713,0.27239716619454146,0.0,64.0,-0.111434586,-0.07520126,-0.7189328129032259,0.42972148571428576,56.81067187096774,-8.724791690322581,-782.3740478792561,-2.4603554171239357,0.37423679999744985,-0.574543404879256,7.1,2.0,26.9518318,27.96318,FLAPS_3,69277.0,173.72539779999974,140.0,113.6,183.0,12.919007084513646,13.6,11.591996934963076,15.0,0,0,0.0,150.0,-207.830643,-0.000170571322,26.0237961,25.9062824,-3.73263478,-0.182653666,-0.185375586,-3.51686239,3.47425365,0.006653181,0.0,0.0,1,0,0,0,59.0235863,58.78188,,472.0,134.4,150.0,8.1,10.0,-0.06488960001743285,0.0,0.43225882788176745,0.5262697878817674,0.4673610026559462,26.032007847936207,0.4673610026559462,0.4673610026559462,-7,-0.35,-0.6,-0.0,0.2,0.0045,0.06,-0.00015160771627359488,0.005,0.0,0.005,0.0,5.274659999999983,2.346055050449429,WAITING_CAPTURE
0.20549639999990177,1,11,Approach,2044.87329,173.141144,179.785065,-207.802078,55.93534469604492,37.193870544433594,69.2674561,69.27359,-0.120071411,0.673370361,-0.005722691,-0.6539209966153836,1.3272913576153837,0.27239716619454146,0.0,64.0,-0.111434586,-0.07520126,-0.7189328129032259,0.42972148571428576,56.81067187096774,-8.724042690322582,-782.2778431416089,-2.4603009833052227,0.30699479999737145,-0.5744757651416089,7.1,2.0,26.9518318,27.96318,FLAPS_3,69277.0,173.71419079999973,140.0,113.6,183.0,12.919007084513646,13.6,11.591715726898263,15.0,0,0,0.0,150.0,-207.802078,-0.004820139,26.0237961,25.9062824,-3.73263478,0.004235963,0.0002832469,-4.603783,4.5465107,0.0149619,0.0,0.0,1,0,0,0,59.02347,58.7816277,,472.0,134.4,150.0,8.1,10.0,-0.0775565294143405,0.0,0.4209320164732556,0.5149429764732556,0.4676829409714458,26.049939812109532,0.4676829409714458,0.4676829409714458,-7,-0.35,-0.6,-0.0,0.2,0.0045,0.06,-0.0002255151926924973,0.005,0.0,0.005,0.0,5.273590000000013,2.3460790033846166,WAITING_CAPTURE
0.25299529999938386,1,11,Approach,2045.29456,173.126633,179.785065,-207.660172,55.935516357421875,37.193870544433594,69.26773,69.27304,-0.1265564,0.673034668,-0.0182750821,-0.6534744791211303,1.3265091471211303,0.27237342475449433,0.0,64.0,-0.111966938,-0.0743134841,-0.7223673419354839,0.42464848057142857,56.77632658064516,-8.747699393548373,-784.3070451987517,-2.4666750475908503,0.2357464499981483,-0.5766468731987517,7.1,2.0,26.9518318,27.96318,FLAPS_3,69277.0,173.70231607499986,140.0,113.6,183.0,12.919066438113763,13.6,11.592557290992632,15.0,0,0,0.0,150.0,-207.660172,-0.006471389,26.06674,25.9586277,-3.73263478,0.441286922,0.436855555,-6.232892,6.15218925,0.0327132531,0.0,0.0,1,0,0,0,59.02335,58.78122,,472.0,134.4,150.0,8.1,10.0,-0.09088547411378889,0.0,0.38792653779245445,0.47441637779245316,0.46801268177848043,26.06830637506136,0.46801268177848043,0.46801268177848043,-7,-0.35,-0.6,-0.0,0.2,0.0045,0.06,-0.00031898338471269487,0.005,0.0,0.005,0.0,5.27303999999998,2.3465255208788696,WAITING_CAPTURE
0.2980610999984492,1,11,Approach,2046.13452,173.109665,179.7695,-207.550583,55.935516357421875,37.19404220581055,69.26816,69.27243,-0.135757446,0.672195435,-0.0380752459,-0.6531861944390259,1.325381629439026,0.2723458003898833,0.0,64.0,-0.111966938,-0.0743134841,-0.7223673419354839,0.42464848057142857,56.77632658064516,-8.747272393548377,-784.2244376662595,-2.4666288508049226,0.1681477499995503,-0.5766738546662595,7.1,2.0,26.9518318,27.96318,FLAPS_3,69277.0,173.6910496250001,140.0,113.6,183.0,12.919135499025291,13.6,11.593753869586266,15.0,0,0,0.0,150.0,-207.550583,-0.008990024,26.06674,25.9586277,-3.73263478,0.5849788,0.5798727,-7.047268,6.953826,0.0406419374,0.0,0.0,1,0,0,0,59.0233955,58.7809944,,472.0,134.4,150.0,8.1,10.0,-0.10348696745664503,0.0,0.39266400298218396,0.47915384298218267,0.46831834485997437,26.085331808700573,0.46831834485997437,0.46831834485997437,-7,-0.35,-0.6,-0.0,0.2,0.0045,0.06,-0.00042120228944269455,0.005,0.0,0.005,0.0,5.272429999999986,2.346813805560974,WAITING_CAPTURE
0.3438425999993342,1,11,Approach,2046.73877,173.092392,179.751083,-207.350266,55.935516357421875,37.19404220581055,69.26984,69.27081,-0.169830322,0.6676483,-0.09737744,-0.6526226817392455,1.3202709817392455,0.272317759402465,0.0,64.0,-0.111966938,-0.0743134841,-0.7223673419354839,0.42464848057142857,56.77632658064516,-8.746138393548375,-784.1266938226422,-2.466574178969642,0.0994754999982228,-0.5767764278226422,7.1,2.0,26.9518318,27.96318,FLAPS_3,69277.0,173.67960424999987,140.0,113.6,183.0,12.919205601493838,13.6,11.598934619754592,15.0,0,0,0.0,150.0,-207.350266,-0.0141706541,26.1099663,26.0112572,-3.73263478,1.07527018,1.07002556,-8.654083,8.551527,0.05204993,0.0,0.0,1,0,0,0,59.02395,58.7810173,,472.0,134.4,150.0,8.1,10.0,-0.11474815304250455,0.0,0.36355249554297225,0.44251977554297284,0.4686222280356233,26.10225810158422,0.4686222280356233,0.4686222280356233,-7,-0.35,-0.6,-0.0,0.2,0.0045,0.06,-0.0005382554031397234,0.005,0.0,0.005,0.0,5.270809999999983,2.3473773182607545,WAITING_CAPTURE
0.38705339999978605,1,11,Approach,2046.73877,173.092392,179.751083,-207.350266,55.935516357421875,37.19404220581055,69.27136,69.26965,-0.19871521,0.6628723,-0.14265132,-0.6526226817392455,1.3154949817392456,0.272317759402465,0.0,64.0,-0.112462223,-0.07349279,-0.725562729032258,0.4199588,56.74437270967742,-8.767694103225804,-786.0025660512136,-2.4724676690312934,0.03465929999754502,-0.5786523000512136,7.1,2.0,26.9518318,27.96318,FLAPS_3,69277.0,173.66880154999976,140.0,113.6,183.0,12.919205601493838,13.6,11.603710619754592,15.0,0,0,0.0,150.0,-207.350266,-0.01661052,26.1099663,26.0112572,-3.73263478,1.21322954,1.20780456,-9.088416,9.035986,0.0534861274,0.0,0.0,1,0,0,0,59.0242424,58.781208,,472.0,134.4,150.0,8.1,10.0,-0.12547796639920916,0.0,0.3555603296400638,0.4345276096400643,0.46889347107012275,26.117366338605837,0.46889347107012275,0.46889347107012275,-7,-0.35,-0.6,-0.0,0.2,0.0045,0.06,-0.0006604105414932781,0.005,0.0,0.005,0.0,5.269650000000013,2.3473773182607545,WAITING_CAPTURE
0.4350792999994155,1,11,Approach,2047.58142,173.077438,179.732361,-207.111511,55.935516357421875,37.1942138671875,69.2744751,69.26767,-0.256546021,0.6520386,-0.22288996,-0.6519391763601841,1.303977776360184,0.27229341651058336,0.0,64.0,-0.112462223,-0.07349279,-0.725562729032258,0.4199588,56.74437270967742,-8.766308103225802,-785.9032034926968,-2.4724126946903935,-0.03737955000189919,-0.5787916924926967,7.1,2.0,26.9518318,27.96318,FLAPS_3,69277.0,173.65679507499985,140.0,113.6,183.0,12.919266458723541,13.6,11.615288682363357,15.0,0,0,0.0,150.0,-207.111511,-0.0203761775,26.14876,26.0586967,-3.73263478,1.57744074,1.5697422,-9.297351,9.2773,0.04937185,0.0,0.0,1,0,0,0,59.02624,58.7830048,,472.0,134.4,150.0,8.1,10.0,-0.13515478397974812,0.0,0.3290735059927439,0.4011241459927444,0.4691875618089862,26.13374719276053,0.4691875618089862,0.4691875618089862,-7,-0.35,-0.6,-0.0,0.2,0.0045,0.06,-0.0008094052135779216,0.005,0.0,0.005,0.0,5.26767000000001,2.348060823639816,WAITING_CAPTURE
0.47978729999886127,1,11,Approach,2047.81458,173.077438,179.716263,-207.026779,55.935516357421875,37.1942138671875,69.27637,69.26654,-0.291854858,0.6446686,-0.270013571,-0.6517308508332056,1.2963994508332055,0.27229341651058336,0.0,64.0,-0.112462223,-0.07349279,-0.725562729032258,0.4199588,56.74437270967742,-8.76551710322581,-785.8177671895772,-2.472365416169287,-0.1044415500010678,-0.5787909881895772,7.1,2.0,26.9518318,27.96318,FLAPS_3,69277.0,173.645618075,140.0,113.6,183.0,12.919266458723541,13.6,11.622867007890335,15.0,0,0,0.0,150.0,-207.026779,-0.0216864161,26.14876,26.0586967,-3.73263478,1.73837435,1.73334527,-9.213219,9.205377,0.0381658338,0.0,0.0,1,0,0,0,59.027874,58.7847023,,472.0,134.4,150.0,8.1,10.0,-0.14597136086256307,0.0,0.3221254318675802,0.39417607186758075,0.4694464970005639,26.14816988293141,0.4694464970005639,0.4694464970005639,-7,-0.35,-0.6,-0.0,0.2,0.0045,0.06,-0.000960115688214168,0.005,0.0,0.005,0.0,5.26654000000002,2.3482691491667946,WAITING_CAPTURE
0.526874899998802,1,11,Approach,2048.5647,173.0624,179.697479,-206.7652,55.935516357421875,37.19438552856445,69.2818,69.26349,-0.38961792,0.6217346,-0.389350653,-0.650975492012256,1.272710092012256,0.27226859033624523,0.0,64.0,-0.112958357,-0.07268182,-0.728763593548387,0.4153246857142857,56.71236406451613,-8.785788154838706,-787.5717212951041,-2.4781355857973226,-0.1750729500009789,-0.5808065212951042,7.1,2.0,26.9518318,27.96318,FLAPS_3,69277.0,173.633846175,140.0,113.6,183.0,12.919328524159386,13.6,11.64661843214713,15.0,0,0,0.0,150.0,-206.7652,-0.0255236737,26.1816654,26.0988064,-3.73263478,2.07807064,2.07479024,-8.843149,8.845476,-0.0114226434,0.0,0.0,1,0,0,0,59.03255,58.7898865,,472.0,134.4,150.0,8.1,10.0,-0.15055860307529226,0.0,0.30186369242131655,0.3681508924213158,0.4697142529052525,26.163083886822566,0.4697142529052525,0.4697142529052525,-7,-0.35,-0.6,-0.0,0.2,0.0045,0.06,-0.0011289545865753728,0.005,0.0,0.005,0.0,5.26348999999999,2.349024507987744,WAITING_CAPTURE
0.5700969999998051,1,11,Approach,2048.91919,173.045013,179.697479,-206.638351,55.935516357421875,37.19438552856445,69.2818,69.26349,-0.38961792,0.6217346,-0.389350653,-0.6505761574501909,1.272310757450191,0.2722409417317618,0.0,64.0,-0.112958357,-0.07268182,-0.728763593548387,0.4153246857142857,56.71236406451613,-8.785788154838706,-787.5717212951041,-2.4781355857973226,-0.23990610000248358,-0.5809333702951042,7.1,2.0,26.9518318,27.96318,FLAPS_3,69277.0,173.62304064999975,140.0,113.6,183.0,12.919397645670596,13.6,11.647086888220405,15.0,0,0,0.0,150.0,-206.638351,-0.0255236737,26.1816654,26.0988064,-3.73263478,2.13700533,2.13347816,-8.693138,8.698369,-0.0317177437,0.0,0.0,1,0,0,0,59.0340347,58.7915726,,472.0,134.4,150.0,8.1,10.0,-0.16562311601827637,0.0,0.3108093014941253,0.3770965014941246,0.4699585235816821,26.176689763499695,0.4699585235816821,0.4699585235816821,-7,-0.35,-0.6,-0.0,0.2,0.0045,0.06,-0.0012965432288273603,0.005,0.0,0.005,0.0,5.26348999999999,2.3494238425498093,WAITING_CAPTURE
0.6186154999995779,1,11,Approach,2049.94629,173.027542,179.681488,-206.616959,55.935516357421875,37.19438552856445,69.28827,69.25992,-0.5062103,0.5898895,-0.523349941,-0.6505667010289221,1.240456201028922,0.2722128780194631,0.0,64.0,-0.113455325,-0.07188571,-0.7319698387096774,0.4107754857142858,56.68030161290323,-8.80573287096773,-789.3065328690152,-2.483808186923216,-0.3126838500021427,-0.5826895738690152,7.1,2.0,26.9518318,27.96318,FLAPS_3,69277.0,173.6109110249998,140.0,113.6,183.0,12.919467804951342,13.6,11.67901160392242,15.0,0,0,0.0,150.0,-206.616959,-0.0290238913,26.1816654,26.0988064,-3.73263478,2.39652324,2.3942678,-8.251295,8.256431,-0.118462332,0.0,0.0,1,0,0,0,59.0413055,58.79994,,472.0,134.4,150.0,8.1,10.0,-0.16724730552851497,0.0,0.3194312048537456,0.38571840485374487,0.47022971115711387,26.191794911451243,0.47022971115711387,0.47022971115711387,-7,-0.35,-0.6,-0.0,0.2,0.0045,0.06,-0.0014936050016957927,0.005,0.0,0.005,0.0,5.259919999999994,2.349433298971078,WAITING_CAPTURE
0.6631488999992143,1,11,Approach,2050.712,173.027542,179.663086,-206.663589,55.935516357421875,37.194557189941406,69.29544,69.25568,-0.6383362,0.548339844,-0.6659708,-0.6507801540844819,1.1991199980844818,0.2722128780194631,0.0,64.0,-0.113455325,-0.07188571,-0.7319698387096774,0.4107754857142858,56.68030161290323,-8.802764870967742,-789.208868634327,-2.48375529384872,-0.3794839500015974,-0.582545279634327,7.1,2.0,26.9518318,27.96318,FLAPS_3,69277.0,173.5997776749999,140.0,113.6,183.0,12.919467804951342,13.6,11.72034780686686,15.0,0,0,0.0,150.0,-206.663589,-0.03227224,26.2118511,26.135622,-3.73263478,2.4353838,2.43412042,-7.98113632,7.98742676,-0.173373714,0.0,0.0,1,0,0,0,59.0481339,58.8078957,,472.0,134.4,150.0,8.1,10.0,-0.16425524418871582,0.0,0.29002606598940933,0.3510093459894086,0.47046600348326356,26.20495639401778,0.47046600348326356,0.47046600348326356,-7,-0.35,-0.6,-0.0,0.2,0.0045,0.06,-0.0016795411683593329,0.005,0.0,0.005,0.0,5.255679999999984,2.3492198459155182,WAITING_CAPTURE
0.7102793999983987,1,11,Approach,2051.686,173.0129,179.663086,-207.190338,55.935516357421875,37.194557189941406,69.298645,69.25366,-0.698959351,0.527496338,-0.7272504,-0.6524387345925864,1.1799350725925863,0.27218851240270103,0.0,64.0,-0.113455325,-0.07188571,-0.7319698387096774,0.4107754857142858,56.68030161290323,-8.801350870967731,-789.208868634327,-2.48375529384872,-0.450179700000374,-0.5820185306343271,7.1,2.0,26.9518318,27.96318,FLAPS_3,69277.0,173.5879950500001,140.0,113.6,183.0,12.919528718993247,13.6,11.73959364640066,15.0,0,0,0.0,150.0,-207.190338,-0.0342347361,26.2118511,26.135622,-3.73263478,2.60240531,2.60128284,-7.700898,7.70703554,-0.24276185,0.0,0.0,1,0,0,0,59.05616,58.8173332,,472.0,134.4,150.0,8.1,10.0,-0.1736885816299794,0.0,0.2973607412517988,0.35834402125179804,0.47071297040034443,26.218712451299186,0.47071297040034443,0.47071297040034443,-7,-0.35,-0.6,-0.0,0.2,0.0045,0.06,-0.0018868937906461394,0.005,0.0,0.005,0.0,5.253659999999996,2.3475612654074136,WAITING_CAPTURE
0.7564074999991135,1,11,Approach,2051.91553,172.993942,179.645065,-207.5958,55.935516357421875,37.19472885131836,69.30615,69.24841,-0.848053,0.471557617,-0.8726923,-0.6537809880389563,1.1253386050389564,0.2721571884275613,0.0,64.0,-0.113991044,-0.0710494742,-0.7354260903225807,0.4059969954285715,56.64573909677419,-8.821869632258078,-791.0246225807339,-2.4897119699300942,-0.5193718500014461,-0.5834288225807338,7.1,2.0,26.9518318,27.96318,FLAPS_3,69277.0,173.57646302499992,140.0,113.6,183.0,12.919607028931097,13.6,11.79426842389214,15.0,0,0,0.0,150.0,-207.5958,-0.0380691439,26.2437954,26.1741943,-3.73263478,2.66016579,2.65845966,-7.45258474,7.45739937,-0.308652043,0.0,0.0,1,0,0,0,59.0653839,58.82822,,472.0,134.4,150.0,8.1,10.0,-0.1664465345617671,0.0,0.2831443991607873,0.3388252791607872,0.47095513857287097,26.232201218508916,0.47095513857287097,0.47095513857287097,-7,-0.35,-0.6,-0.0,0.2,0.0045,0.06,-0.002092587411609879,0.005,0.0,0.005,0.0,5.248410000000007,2.3462190119610438,WAITING_CAPTURE
0.8018585999998322,1,11,Approach,2052.45117,172.993942,179.627472,-208.111588,55.935516357421875,37.19472885131836,69.3092957,69.24591,-0.914749146,0.444488525,-0.9342589,-0.6554694023399744,1.0999579273399744,0.2721571884275613,0.0,64.0,-0.113991044,-0.0710494742,-0.7354260903225807,0.4059969954285715,56.64573909677419,-8.820119632258061,-790.931251920976,-2.4896619708235845,-0.5875485000025242,-0.5828196639209761,7.1,2.0,26.9518318,27.96318,FLAPS_3,69277.0,173.56510024999974,140.0,113.6,183.0,12.919607028931097,13.6,11.819649101591121,15.0,0,0,0.0,150.0,-208.111588,-0.0398800522,26.2437954,26.1741943,-3.73263478,2.66450071,2.66491818,-7.28281164,7.28693342,-0.356831819,0.0,0.0,1,0,0,0,59.07221,58.8363,,472.0,134.4,150.0,8.1,10.0,-0.17449249210290363,0.0,0.2787737183662732,0.3344545983662731,0.471181939413447,26.244834025329,0.471181939413447,0.471181939413447,-7,-0.35,-0.6,-0.0,0.2,0.0045,0.06,-0.002303669892735132,0.005,0.0,0.005,0.0,5.245909999999981,2.3445305976600257,WAITING_CAPTURE
0.8453497999998945,1,11,Approach,2052.94849,172.980026,179.627472,-208.995621,55.935516357421875,37.19472885131836,69.31238,69.2432556,-0.982833862,0.415603638,-0.9937856,-0.6582535130594582,1.0738571510594581,0.27213498773440514,0.0,64.0,-0.113991044,-0.0710494742,-0.7354260903225807,0.4059969954285715,56.64573909677419,-8.818261552258052,-790.931251920976,-2.4896619708235845,-0.6527853000026176,-0.581935630920976,7.1,2.0,26.9518318,27.96318,FLAPS_3,69277.0,173.55422744999973,140.0,113.6,183.0,12.919662530663988,13.6,11.84580537960453,15.0,0,0,0.0,150.0,-208.995621,-0.0407686457,26.2437954,26.1741943,-3.73263478,2.64288616,2.643245,-7.15448475,7.15868139,-0.390227258,0.0,0.0,1,0,0,0,59.0795822,58.845047,,472.0,134.4,150.0,8.1,10.0,-0.18087152202629944,0.0,0.28675547877380314,0.342436358773803,0.4713976861423489,26.256851118128836,0.4713976861423489,0.4713976861423489,-7,-0.35,-0.6,-0.0,0.2,0.0045,0.06,-0.0025127647191474983,0.005,0.0,0.005,0.0,5.243255599999998,2.3417464869405418,WAITING_CAPTURE
0.892087399999582,1,11,Approach,2053.24048,172.964645,179.612885,-210.806442,55.935516357421875,37.19472885131836,69.3162842,69.2395,-1.07557678,0.374389648,-1.06912279,-0.6640102917642532,1.0383999397642532,0.27211016913502717,0.0,64.0,-0.113991044,-0.0710494742,-0.7354260903225807,0.4059969954285715,56.64573909677419,-8.815632632258069,-790.8538348906862,-2.48962050730471,-0.7228917000021489,-0.5800473928906863,7.1,2.0,26.9518318,27.96318,FLAPS_3,69277.0,173.5425430499998,140.0,113.6,183.0,12.919724577162432,13.6,11.88132463739818,15.0,0,0,0.0,150.0,-210.806442,-0.04340462,26.2735329,26.21003,-3.73263478,2.572888,2.57415915,-6.9854455,6.98883867,-0.44073087,0.0,0.0,1,0,0,0,59.0916138,58.859375,,472.0,134.4,150.0,8.1,10.0,-0.1832151889917733,0.0,0.27207410593593845,0.3228764259359381,0.4716285483318949,26.269710142086545,0.4716285483318949,0.4716285483318949,-7,-0.35,-0.6,-0.0,0.2,0.0045,0.06,-0.002743544054432689,0.005,0.0,0.005,0.0,5.239500000000021,2.335989708235747,WAITING_CAPTURE
0.9372487000000547,1,11,Approach,2053.76685,172.964645,179.596542,-212.4172,55.935516357421875,37.19490051269531,69.32257,69.23218,-1.24230957,0.295349121,-1.18861985,-0.6691443707326167,0.9644934917326167,0.27211016913502717,0.0,64.0,-0.114488862,-0.07029526,-0.7386378193548387,0.4016872,56.61362180645161,-8.832990735483866,-792.4910164798138,-2.494994609184289,-0.7906336500028579,-0.5800738164798138,7.1,2.0,26.9518318,27.96318,FLAPS_3,69277.0,173.5312527249997,140.0,113.6,183.0,12.919724577162432,13.6,11.955231085429816,15.0,0,0,0.0,150.0,-212.4172,-0.04724292,26.2735329,26.21003,-3.73263478,2.50145936,2.50147939,-6.8133893,6.81607342,-0.4923205,0.0,0.0,1,0,0,0,59.10478,58.87511,,472.0,134.4,150.0,8.1,10.0,-0.16783043293981575,0.0,0.2685384603645626,0.31934078036456226,0.4718410791085466,26.281548106346047,0.4718410791085466,0.4718410791085466,-7,-0.35,-0.6,-0.0,0.2,0.0045,0.06,-0.00296424382615741,0.005,0.0,0.005,0.0,5.23218,2.330855629267383,WAITING_CAPTURE
0.9810677999994368,1,11,Approach,2053.99146,172.94989,179.596542,-213.875381,55.935516357421875,37.19490051269531,69.32495,69.22876,-1.31517029,0.2590332,-1.23545849,-0.6737374261532945,0.9327706261532944,0.27208578079338475,0.0,64.0,-0.114488862,-0.07029526,-0.7386378193548387,0.4016872,56.61362180645161,-8.830596735483862,-792.4910164798138,-2.494994609184289,-0.8563623000019311,-0.5786156354798139,7.1,2.0,26.9518318,27.96318,FLAPS_3,69277.0,173.52029794999984,140.0,113.6,183.0,12.919785548016538,13.6,11.987014921863244,15.0,0,0,0.0,150.0,-213.875381,-0.0497044958,26.2735329,26.21003,-3.73263478,2.474865,2.47636175,-6.74398756,6.746252,-0.5112193,0.0,0.0,1,0,0,0,59.1141777,58.8863869,,472.0,134.4,150.0,8.1,10.0,-0.17444531084701975,0.0,0.2779067461357127,0.3287090661357124,0.47204742977634423,26.293041838542376,0.47204742977634423,0.47204742977634423,-7,-0.35,-0.6,-0.0,0.2,0.0045,0.06,-0.0031841841474479146,0.005,0.0,0.005,0.0,5.228759999999994,2.3262625738467055,WAITING_CAPTURE
1.027767399998993,1,11,Approach,2054.88281,172.9381,179.580872,-217.385513,55.935516357421875,37.195072174072266,69.3291,69.2213745,-1.46290588,0.182357788,-1.32089972,-0.6848535379811275,0.8672113259811275,0.2720663389007088,0.0,64.0,-0.114947088,-0.069618836,-0.7415941161290323,0.39782192000000005,56.58405883870968,-8.84612096290321,-793.9539636848154,-2.4998123953330604,-0.9264117000012653,-0.5765684506848154,7.1,2.0,26.9518318,27.96318,FLAPS_3,69277.0,173.50862304999995,140.0,113.6,183.0,12.919834152748228,13.6,12.0526228267671,15.0,0,0,0.0,150.0,-217.385513,-0.05311041,26.3007431,26.2423172,-3.73263478,2.37287736,2.3752,-6.623039,6.62476254,-0.544230342,0.0,0.0,1,0,0,0,59.1344032,58.9107132,,472.0,134.4,150.0,8.1,10.0,-0.16362927234797053,0.0,0.2629067320414273,0.30964745204142696,0.47226489520964626,26.305154663177298,0.47226489520964626,0.47226489520964626,-7,-0.35,-0.6,-0.0,0.2,0.0045,0.06,-0.0034171900595640877,0.005,0.0,0.005,0.0,5.221374499999996,2.3151464620188724,WAITING_CAPTURE
1.0727954999983922,1,11,Approach,2055.03735,172.9381,179.568039,-220.136322,55.935516357421875,37.195072174072266,69.33133,69.2160339,-1.56262207,0.12852478,-1.36966991,-0.6935684317113113,0.8220932117113113,0.2720663389007088,0.0,64.0,-0.114947088,-0.069618836,-0.7415941161290323,0.39782192000000005,56.58405883870968,-8.842382542903223,-793.885855592013,-2.4997766344131698,-0.9939538500003642,-0.573749533592013,7.1,2.0,26.9518318,27.96318,FLAPS_3,69277.0,173.4973660250001,140.0,113.6,183.0,12.919834152748228,13.6,12.097740941036918,15.0,0,0,0.0,150.0,-220.136322,-0.05633815,26.3285332,26.27519,-3.73263478,2.23578024,2.23785448,-6.55983973,6.56134129,-0.561506152,0.0,0.0,1,0,0,0,59.1452255,58.9237556,,472.0,134.4,150.0,8.1,10.0,-0.16454413341222315,0.0,0.23780437889469455,0.28047893889469494,0.4724650466970582,26.316303101026143,0.4724650466970582,0.4724650466970582,-7,-0.35,-0.6,-0.0,0.2,0.0045,0.06,-0.0036446339195588904,0.005,0.0,0.005,0.0,5.2160339000000135,2.306431568288689,WAITING_CAPTURE
1.1183757999988302,1,11,Approach,2055.90747,172.92482,179.568039,-223.352,55.935516357421875,37.195072174072266,69.3327,69.21182,-1.63790894,0.08695984,-1.40184283,-0.7036988366518845,0.7906586766518845,0.27204516385715455,0.0,64.0,-0.114947088,-0.069618836,-0.7415941161290323,0.39782192000000005,56.58405883870968,-8.839432812903226,-793.885855592013,-2.4997766344131698,-1.0,-0.570533855592013,7.1,2.0,26.9518318,27.96318,FLAPS_3,69277.0,173.48597095,140.0,113.6,183.0,12.919887090357113,13.6,12.129228413705228,15.0,0,0,0.0,150.0,-223.352,-0.0577701926,26.3285332,26.27519,-3.73263478,2.154034,2.15665364,-6.521072,6.52231932,-0.570459,0.0,0.0,1,0,0,0,59.1565132,58.93738,,472.0,134.4,150.0,8.1,10.0,-0.1594734262143831,0.0,0.24641115426986301,0.2890857142698634,0.4726673200654988,26.32756972764828,0.4726673200654988,0.4726673200654988,-7,-0.35,-0.6,-0.0,0.2,0.0045,0.06,-0.0038675817197392167,0.005,0.0,0.005,0.0,5.211819999999989,2.2963011633481156,WAITING_CAPTURE
1.1517385999995895,1,11,Approach,2056.65063,172.9128,179.5539,-228.951645,55.935516357421875,37.19524383544922,69.33417,69.20593,-1.7388916,0.030166626,-1.43680048,-0.7213961838519819,0.7515628098519819,0.272024659955068,0.0,64.0,-0.115519024,-0.06880059,-0.7452840258064516,0.39314622857142856,56.54715974193549,-8.861139180645164,-795.6810927865123,-2.505619295452171,-1.0,-0.5667294477865124,7.1,2.0,26.9518318,27.96318,FLAPS_3,69277.0,173.4776302499998,140.0,113.6,183.0,12.919938350112329,13.6,12.168375540260346,15.0,0,0,0.0,150.0,-228.951645,-0.0611243472,26.3285332,26.27519,-3.73263478,1.93867266,1.94136047,-6.46136236,6.462353,-0.582450867,0.0,0.0,1,0,0,0,59.174305,58.9589043,,472.0,134.4,150.0,8.1,10.0,-0.1420697399084459,0.0,0.25468593301937653,0.29736049301937695,0.4728163540042925,26.335870918039095,0.4728163540042925,0.4728163540042925,-7,-0.35,-0.6,-0.0,0.2,0.0045,0.06,-0.004022243313737344,0.005,0.0,0.005,0.0,5.205929999999995,2.278603816148018,WAITING_CAPTURE
1.195987499999319,1,11,Approach,2057.48584,172.9128,179.5539,-232.137985,55.935516357421875,37.19524383544922,69.33496,69.2013245,-1.81500244,-0.0132598877,-1.45716453,-0.7314348341636754,0.7181749464636754,0.272024659955068,0.0,64.0,-0.115519024,-0.06880059,-0.7452840258064516,0.39314622857142856,56.54715974193549,-8.857915330645147,-795.6810927865123,-2.505619295452171,-1.0,-0.5635431077865124,7.1,2.0,26.9518318,27.96318,FLAPS_3,69277.0,173.46656802499987,140.0,113.6,183.0,12.919938350112329,13.6,12.201763403648654,15.0,0,0,0.0,150.0,-232.137985,-0.06303576,26.3285332,26.27519,-3.73263478,1.84702063,1.849796,-6.43103027,6.431992,-0.587886333,0.0,0.0,1,0,0,0,59.1867027,58.97392,,472.0,134.4,150.0,8.1,10.0,-0.1353872685040819,0.0,0.25227907037044645,0.2949536303704468,0.47300541235939,26.346401468418023,0.47300541235939,0.47300541235939,-7,-0.35,-0.6,-0.0,0.2,0.0045,0.06,-0.004218723054234325,0.005,0.0,0.005,0.0,5.201324499999998,2.268565165836325,WAITING_CAPTURE
1.2426507999989553,1,11,Approach,2058.06421,172.9033,179.540573,-240.551147,55.935516357421875,37.19541549682617,69.33563,69.18982,-1.99353027,-0.116424561,-1.48228753,-0.757996765147846,0.641572204147846,0.27200894039780116,0.0,64.0,-0.115519024,-0.06880059,-0.7452840258064516,0.39314622857142856,56.54715974193549,-8.849862180645147,-795.610362906299,-2.5055825836157952,-1.0,-0.5550592159062989,7.1,2.0,26.9518318,27.96318,FLAPS_3,69277.0,173.45490219999996,140.0,113.6,183.0,12.919977649005496,13.6,12.27840544485765,15.0,0,0,0.0,150.0,-240.551147,-0.0654213652,26.3523159,26.3032379,-3.73263478,1.42849493,1.432156,-6.38428974,6.38500738,-0.592648864,0.0,0.0,1,0,0,0,59.2126427,59.00537,,472.0,134.4,150.0,8.1,10.0,-0.10110757630838321,0.0,0.23901003478657337,0.2782724347865746,0.47320226111309976,26.357365943999657,0.47320226111309976,0.47320226111309976,-7,-0.35,-0.6,-0.0,0.2,0.0045,0.06,-0.004404260510254978,0.005,0.0,0.005,0.0,5.189819999999997,2.242003234852154,WAITING_CAPTURE
1.2867374999987078,1,11,Approach,2058.06421,172.9033,179.52832,-240.551147,55.935516357421875,37.19541549682617,69.33542,69.18457,-2.07035828,-0.160964966,-1.48238373,-0.7580484932016321,0.5970835272016322,0.27200894039780116,0.0,64.0,-0.115519024,-0.06880059,-0.7452840258064516,0.39314622857142856,56.54715974193549,-8.846187180645153,-795.5453330254365,-2.50554882551201,-1.0,-0.5549941860254366,7.1,2.0,26.9518318,27.96318,FLAPS_3,69277.0,173.44388052500003,140.0,113.6,183.0,12.919977649005496,13.6,12.322894121803863,15.0,0,0,0.0,150.0,-240.551147,-0.0677248538,26.3523159,26.3032379,-3.73263478,1.29916275,1.30315256,-6.364354,6.36499643,-0.592662156,0.0,0.0,1,0,0,0,59.2193527,59.0135155,,472.0,134.4,150.0,8.1,10.0,-0.09620270694188593,0.0,0.23701166455616415,0.2762740645561654,0.47338037676024575,26.36728698554569,0.47338037676024575,0.47338037676024575,-7,-0.35,-0.6,-0.0,0.2,0.0045,0.06,-0.004570716796504558,0.005,0.0,0.005,0.0,5.184570000000008,2.241951506798368,WAITING_CAPTURE
1.3334182999988116,1,11,Approach,2057.93433,172.8933,179.518692,-250.270782,55.935516357421875,37.19541549682617,69.3340759,69.17352,-2.22444153,-0.249786377,-1.46852458,-0.7887164647148979,0.5389300877148979,0.2719916482788108,0.0,64.0,-0.116013467,-0.0681150258,-0.7484739806451612,0.38922871885714294,56.515260193548386,-8.860781864516127,-797.0612385929476,-2.510451489815111,-1.0,-0.5467904565929476,7.1,2.0,26.9518318,27.96318,FLAPS_3,69277.0,173.432210325,140.0,113.6,183.0,12.920020879302973,13.6,12.381090791588075,15.0,0,0,0.0,150.0,-250.270782,-0.0703900754,26.3777847,26.3329735,-3.73263478,0.7594206,0.7681827,-6.33913565,6.33963728,-0.589719951,0.0,0.0,1,0,0,0,59.2469978,59.0470963,,472.0,134.4,150.0,8.1,10.0,-0.07068790830625345,0.0,0.22318737792030305,0.2590363379203015,0.4735674757680865,26.37770840028242,0.4735674757680865,0.4735674757680865,-7,-0.35,-0.6,-0.0,0.2,0.0045,0.06,-0.004728309370921331,0.005,0.0,0.005,0.0,5.173519999999996,2.2112835352851024,WAITING_CAPTURE
