time_s,active,flight_phase,control_mode,ra_ft,ias_kt,ground_speed_kt,vs_fpm,latitude_deg,longitude_deg,heading_deg,track_magnetic_deg,roll_deg,pitch_deg,body_pitch_rate_deg_s,flight_path_angle_deg,estimated_aoa_deg,mach,lateral_deviation,runway_heading_deg,loc_ddm,gs_ddm,loc_dots,gs_dots,target_heading_deg,target_roll_deg,target_vs_fpm,target_flight_path_angle_deg,target_pitch_deg,vertical_correction_deg,configured_aoa_deg,reference_aoa_deg,flaps_angle_deg,slats_angle_deg,flap_configuration,landing_weight_kg,target_ias_kt,vapp_kt,vsr1_kt,vfe_kt,alpha_prot_deg,alpha_sw_deg,alpha_margin_deg,roll_limit_deg,flare_armed,flare_active,flare_progress,flare_entry_ra_ft,flare_entry_vs_fpm,body_norm_accel_g,left_throttle_angle_deg,right_throttle_angle_deg,stabilizer_angle_deg,elevator_left_angle_deg,elevator_right_angle_deg,aileron_left_angle_deg,aileron_right_angle_deg,rudder_angle_deg,wind_direction_true_deg,wind_speed_kt,nose_gear_wow,left_gear_wow,right_gear_wow,main_gear_touchdown,eng_left_thrust,eng_right_thrust,envelope_warnings,touchdown_vs_limit_fpm,touchdown_speed_min_kt,touchdown_speed_max_kt,touchdown_pitch_limit_deg,aileron_cmd_deg,elevator_cmd,rudder_cmd_deg,throttle_left_rate_cmd_deg_s,throttle_right_rate_cmd_deg_s,throttle_cmd_norm,throttle_target_angle_deg,throttle_left_position_cmd_norm,throttle_right_position_cmd_norm,roll_kp,roll_ki,roll_kd,roll_i_term,pitch_kp,pitch_ki,pitch_kd,pitch_i_term,speed_kp,speed_ki,speed_kd,speed_i_term,criteria_course_error_deg,criteria_glideslope_error_deg,criteria_status
0.0034413999965181574,1,5,Approach,2208.14917,182.706711,190.8206,-1393.72,55.930538177490234,37.14975357055664,65.95123,70.08594,3.80450439,-4.03352356,0.08597121,-4.125217002088242,0.09169344208824182,0.2884257848647932,0.0,64.0,-0.03639772,-0.172325343,-0.234824,0.9847162457142857,61.65176,-5.9039259999999985,-618.8484143153087,-1.834249835200889,-0.9948379000052228,1.162307378527037,7.1,2.0,29.52187,26.9133911,FLAPS_3,69277.0,182.70585065000088,140.0,113.6,183.0,12.878935537838018,13.6,12.787242095749775,15.0,0,0,0.0,150.0,-1393.72,-0.000641233462,27.8461533,27.6853542,-2.72886133,-1.64599848,-1.64562154,-0.223292708,0.223301888,0.08058826,-26.0000134,13.6,1,0,0,0,62.8103828,62.478344,,472.0,134.4,150.0,8.1,10.0,0.5,0.0,-0.06455990714288579,0.06407937285711579,0.4984874851959576,27.76575292541484,0.4984874851959576,0.4984874851959576,-7,-0.35,-0.6,-0.0,0.2,0.0045,0.06,0.0,0.005,0.0,0.005,-0.0,6.085939999999994,1.1252170020882417,WAITING_CAPTURE
0.005525499997020233,1,5,Approach,2208.7085,182.7965,190.915344,-1394.50818,55.930538177490234,37.149925231933594,65.9625549,70.09625,3.80679321,-4.03167725,0.0879212245,-4.125500577077105,0.0938233270771045,0.2885589844787543,0.0,64.0,-0.03639772,-0.172325343,-0.234824,0.9847162457142857,61.65176,-5.911143000000001,-619.3512455429616,-1.834828809477836,-0.9917117500044696,1.1627354016855578,7.1,2.0001667280000404,29.448103,26.8348122,FLAPS_3,69277.0,182.70532962500076,140.0,113.6,183.0,12.878602538803115,13.6,12.784779211726011,15.0,0,0,0.0,150.0,-1394.50818,0.0005182841,27.8461533,27.6853542,-2.718792,-2.28856659,-2.27980781,-1.16072285,1.11223853,-0.32157582,-26.0000134,13.6,1,0,0,0,62.80935,62.4773026,,472.0,134.4,150.0,8.1,10.0,0.5,0.0,-0.13974518085531756,-0.011105900855315973,0.49848466775706307,27.765595994068413,0.49848466775706307,0.49848466775706307,-7,-0.35,-0.6,-0.0,0.2,0.0045,0.06,0.0,0.005,0.0,0.005,-0.0,6.096249999999998,1.125500577077105,WAITING_CAPTURE
0.006045800000720192,1,5,Approach,2208.59619,182.7965,190.915344,-1395.03247,55.930538177490234,37.149925231933594,65.9776,70.11023,3.80975342,-4.028778,0.110232092,-4.127046273513644,0.09826827351364376,0.2885589844787543,0.0,64.0,-0.03639772,-0.172325343,-0.234824,0.9847162457142857,61.65176,-5.920929000000004,-619.3512455429616,-1.834828809477836,-0.9902117500044697,1.1635218366855578,7.1,2.0002467280000404,29.41122,26.79552,FLAPS_3,69277.0,182.70507962500076,140.0,113.6,183.0,12.878602538803115,13.6,12.780334265289472,15.0,0,0,0.0,150.0,-1395.03247,0.00469759759,28.6277561,28.463583,-2.71375728,-2.54600573,-2.53509426,-1.93427527,1.87470543,-0.485403627,-26.0000134,13.6,1,0,0,0,62.8087234,62.4766655,,472.0,134.4,150.0,8.1,10.0,0.5,0.0,-0.7650575442274995,-0.6337190642275,0.4984833164241351,27.765520724824327,0.4984833164241351,0.4984833164241351,-7,-0.35,-0.6,-0.0,0.2,0.0045,0.06,0.0,0.005,0.0,0.005,-0.0,6.110230000000001,1.1270462735136437,WAITING_CAPTURE
0.00648170000204118,1,5,Approach,2207.346,182.873749,191.010086,-1396.55847,55.930538177490234,37.15009689331055,65.99933,70.13165,3.81236267,-4.021988,0.16882284,-4.12950297094218,0.1075149709421801,0.28867588732348637,0.0,64.0,-0.0369005874,-0.1728984,-0.2380683058064516,0.9879908571428573,61.61931694193548,-5.9586331406451585,-618.544221584662,-1.831531350630279,-0.9887117500044698,1.167021372623007,7.1,2.0003267280000405,29.33749,26.7169418,FLAPS_3,69277.0,182.70482962500077,140.0,113.6,183.0,12.878310281691284,13.6,12.770795310749104,15.0,0,0,0.0,150.0,-1396.55847,0.008354093,28.6277561,28.463583,-2.703688,-2.95560217,-2.94574356,-3.28544664,3.23465943,-0.669378042,-26.0000134,13.6,1,0,0,0,62.81034,62.47836,,472.0,134.4,150.0,8.1,10.0,0.5,0.0,-0.8296379822303699,-0.6982995022303704,0.49848080766485725,27.76538098693255,0.49848080766485725,0.49848080766485725,-7,-0.35,-0.6,-0.0,0.2,0.0045,0.06,0.0,0.005,0.0,0.005,-0.0,6.131649999999979,1.1295029709421804,WAITING_CAPTURE
0.006876399995235261,1,5,Approach,2206.62476,182.963745,191.091064,-1397.28589,55.930538177490234,37.15009689331055,66.01303,70.1459961,3.811554,-4.01512146,0.220651478,-4.129901648267004,0.11478018826700431,0.28880897028306135,0.0,64.0,-0.0369005874,-0.1728984,-0.2380683058064516,0.9879908571428573,61.61931694193548,-5.968675410645167,-618.9739930440987,-1.8320269002803224,-0.9872117500044698,1.167467845433852,7.1,2.0004067280000406,29.30065,26.67765,FLAPS_3,69277.0,182.70457962500078,140.0,113.6,183.0,12.877977574292347,13.6,12.763197386025343,15.0,0,0,0.0,150.0,-1397.28589,0.0105100237,28.6277561,28.463583,-2.69865322,-3.12448788,-3.11534786,-3.56480837,3.52933717,-0.7021712,-26.0000134,13.6,1,0,0,0,62.81451,62.4825,,472.0,134.4,150.0,8.1,10.0,0.5,0.0,-0.9048357795350332,-0.7734972995350338,0.4984769519399384,27.76516622305457,0.4984769519399384,0.4984769519399384,-7,-0.35,-0.6,-0.0,0.2,0.0045,0.06,0.0,0.005,0.0,0.005,-0.0,6.145996099999991,1.129901648267004,WAITING_CAPTURE
0.007245299995702226,1,5,Approach,2205.70435,182.963745,191.185486,-1398.26428,55.930538177490234,37.1502685546875,66.03238,70.16754,3.80537415,-4.000473,0.310777,-4.130749402616191,0.13027640261619045,0.28880897028306135,0.0,64.0,-0.0369005874,-0.1728984,-0.2380683058064516,0.9879908571428573,61.61931694193548,-5.983756140645175,-619.4751153333989,-1.8326041908235924,-0.9857117500044699,1.168183746999902,7.1,2.0004867280000407,29.2270279,26.59907,FLAPS_3,69277.0,182.70432962500078,140.0,113.6,183.0,12.877977574292347,13.6,12.747701171676155,15.0,0,0,0.0,150.0,-1398.26428,0.0132616339,28.6277561,28.463583,-2.68858385,-3.40147972,-3.39402533,-3.39825821,3.38643551,-0.7020163,-26.0000134,13.6,1,0,0,0,62.82647,62.494236,,472.0,134.4,150.0,8.1,10.0,0.5,0.0,-0.9047921557678253,-0.7734536757678259,0.4984731000796993,27.764951674439253,0.4984731000796993,0.4984731000796993,-7,-0.35,-0.6,-0.0,0.2,0.0045,0.06,0.0,0.005,0.0,0.005,-0.0,6.1675400000000025,1.1307494026161908,WAITING_CAPTURE
0.0076649999973597005,1,5,Approach,2205.01465,183.0538,191.185486,-1398.98535,55.930538177490234,37.1502685546875,66.03238,70.16754,3.80537415,-4.000473,0.310777,-4.132872206695288,0.13239920669528793,0.28894605433657833,0.0,64.0,-0.0369005874,-0.1728984,-0.2380683058064516,0.9879908571428573,61.61931694193548,-5.983756140645175,-619.4751153333989,-1.8326041908235924,-0.9842117500044699,1.1692653519999017,7.1,2.0005667280000408,29.2024956,26.5728779,FLAPS_3,69277.0,182.7040796250008,140.0,113.6,183.0,12.877634864158555,13.6,12.745235657463267,15.0,0,0,0.0,150.0,-1398.98535,0.0132616339,28.6277561,28.463583,-2.68522739,-3.47866321,-3.47185659,-3.31274033,3.31513453,-0.689755738,-26.0000134,13.6,1,0,0,0,62.832077,62.499794,VFE,472.0,134.4,150.0,8.1,10.0,0.5,0.0,-0.9799999074007266,-0.8486614274007273,0.49846790214887066,27.764662149692096,0.49846790214887066,0.49846790214887066,-7,-0.35,-0.6,-0.0,0.2,0.0045,0.06,0.0,0.005,0.0,0.005,-0.0,6.1675400000000025,1.1328722066952883,WAITING_CAPTURE
0.008093899996310938,1,5,Approach,2203.13159,183.131134,191.280029,-1400.51563,55.930538177490234,37.1502685546875,66.05319,70.1925049,3.79125977,-3.97595215,0.429284453,-4.135339394095832,0.15938724409583171,0.28906076044287204,0.0,64.0,-0.0373706073,-0.173423365,-0.2411006922580645,0.9909906571428572,61.58899307741935,-6.02245827580646,-618.776959801397,-1.829636074296046,-0.98271175000447,1.1726080052979047,7.1,2.000646728000041,29.1289158,26.494297,FLAPS_3,69277.0,182.7038296250008,140.0,113.6,183.0,12.87734809889282,13.6,12.717960854796988,15.0,0,0,0.0,150.0,-1400.51563,0.0173378773,28.6277561,28.463583,-2.675158,-3.6553638,-3.65051866,-2.91299939,2.92671251,-0.633720636,-26.0000134,13.6,1,0,0,0,62.8626747,62.5302925,VFE,472.0,134.4,150.0,8.1,10.0,0.5,0.0,-1.0445381958280975,-0.913199715828098,0.4984615506226306,27.764308369680524,0.4984615506226306,0.4984615506226306,-7,-0.35,-0.6,-0.0,0.2,0.0045,0.06,0.0,0.005,0.0,0.005,-0.0,6.192504900000017,1.1353393940958316,WAITING_CAPTURE
0.008392399999138433,1,5,Approach,2202.24731,183.131134,191.361313,-1401.0708,55.930538177490234,37.15044021606445,66.07239,70.2172241,3.770874,-3.94276428,0.5532586,-4.135221815843722,0.19245753584372194,0.28906076044287204,0.0,64.0,-0.0373706073,-0.173423365,-0.2411006922580645,0.9909906571428572,61.58899307741935,-6.0397617158064545,-619.208355282995,-1.8301336001508703,-0.98121175000447,1.1727936670755075,7.1,2.000726728000041,29.06761,26.4288139,FLAPS_3,69277.0,182.7035796250008,140.0,113.6,183.0,12.87734809889282,13.6,12.684890563049098,15.0,0,0,0.0,150.0,-1401.0708,0.020984726,28.6277561,28.463583,-2.666767,-3.76423144,-3.76083684,-2.77087116,2.77622,-0.5752309,-26.0000134,13.6,1,0,0,0,62.893837,62.5612755,VFE,472.0,134.4,150.0,8.1,10.0,0.5,0.0,-1.044421443023892,-0.9130829630238926,0.49845520626797485,27.7639549891262,0.49845520626797485,0.49845520626797485,-7,-0.35,-0.6,-0.0,0.2,0.0045,0.06,0.0,0.005,0.0,0.005,-0.0,6.21722410000001,1.135221815843722,WAITING_CAPTURE
0.00888660000055097,1,5,Approach,2201.30249,183.22171,191.361313,-1401.54675,55.930538177490234,37.15044021606445,66.0802,70.22772,3.76054382,-3.92584229,0.606193364,-4.136621693528064,0.21077940352806435,0.2891977051171226,0.0,64.0,-0.0378448367,-0.173937917,-0.24416023677419357,0.9939309542857143,61.558397632258064,-6.0685256574193485,-618.0322364258521,-1.8266598178466702,-0.9797117500044701,1.1752717703612217,7.1,2.000806728000041,29.01856,26.3764267,FLAPS_3,69277.0,182.7033296250008,140.0,113.6,183.0,12.877005737207194,13.6,12.666226333679129,15.0,0,0,0.0,150.0,-1401.54675,0.02223627,28.6277561,28.463583,-2.660054,-3.7481153,-3.748151,-2.398773,2.42,-0.5275695,-26.0000134,13.6,1,0,0,0,62.9182129,62.585392,VFE,472.0,134.4,150.0,8.1,10.0,0.5,0.0,-1.1199916400803323,-0.988653160080333,0.49844751133323356,27.763526381261112,0.49844751133323356,0.49844751133323356,-7,-0.35,-0.6,-0.0,0.2,0.0045,0.06,0.0,0.005,0.0,0.005,-0.0,6.227720000000005,1.1366216935280642,WAITING_CAPTURE
0.009617999996407889,1,5,Approach,2199.453,183.22171,191.456619,-1402.11682,55.930538177490234,37.15044021606445,66.08783,70.23816,3.74942017,-3.90734863,0.6563858,-4.136245523656151,0.22889689365615107,0.2891977051171226,0.0,64.0,-0.0378448367,-0.173937917,-0.24416023677419357,0.9939309542857143,61.558397632258064,-6.07583365741936,-618.5380503347296,-1.8272443631144328,-0.9782117500044701,1.1753681544979055,7.1,2.000886728000041,28.9817715,26.3371353,FLAPS_3,69277.0,182.7030796250008,140.0,113.6,183.0,12.877005737207194,13.6,12.648108843551043,15.0,0,0,0.0,150.0,-1402.11682,0.022550378,28.6277561,28.463583,-2.65501928,-3.689826,-3.69141316,-2.33169484,2.3352046,-0.4921959,-26.0000134,13.6,1,0,0,0,62.94522,62.61204,VFE,472.0,134.4,150.0,8.1,10.0,0.5,0.0,-1.1198358429823534,-0.988497362982354,0.49843982534435877,27.763098271680786,0.49843982534435877,0.49843982534435877,-7,-0.35,-0.6,-0.0,0.2,0.0045,0.06,0.0,0.005,0.0,0.005,-0.0,6.2381599999999935,1.136245523656151,WAITING_CAPTURE
0.010662100001354702,1,5,Approach,2198.1062,183.3255,191.456619,-1402.25977,55.930538177490234,37.150611877441406,66.09772,70.2520142,3.73353577,-3.88041687,0.7174628,-4.136665762400924,0.2562488924009245,0.2893508314212081,0.0,64.0,-0.0378448367,-0.173937917,-0.24416023677419357,0.9939309542857143,61.558397632258064,-6.085531597419358,-618.5380503347296,-1.8272443631144328,-0.9766455999970499,1.1755825794979053,7.1,2.000970256000437,28.92045,26.2716522,FLAPS_3,69277.0,182.70281859999957,140.0,113.6,183.0,12.87662292144698,13.6,12.620374029046056,15.0,0,0,0.0,150.0,-1402.25977,0.0240979455,28.6277561,28.463583,-2.64662814,-3.5330236,-3.536764,-2.15175533,2.152014,-0.437292635,-26.0000134,13.6,1,0,0,0,62.99022,62.6563148,VFE,472.0,134.4,150.0,8.1,10.0,0.5,0.0,-1.2064025612020606,-1.075064081202061,0.49843018575651127,27.76256134663768,0.49843018575651127,0.49843018575651127,-7,-0.35,-0.6,-0.0,0.2,0.0045,0.06,0.0,0.005,0.0,0.005,-0.0,6.252014200000019,1.1366657624009244,WAITING_CAPTURE
0.011079899995820597,1,5,Approach,2196.542,183.390411,191.552551,-1402.088,55.930538177490234,37.150611877441406,66.112,70.272644,3.70776367,-3.835785,0.794157267,-4.134096540566938,0.2983115405669383,0.28945065121584945,0.0,64.0,-0.0383232757,-0.174440175,-0.24724694,0.996801,61.5275306,-6.121579380000005,-617.8991683038832,-1.8244447522435212,-0.97514559999705,1.1762832475441751,7.1,2.001050256000437,28.85912,26.20617,FLAPS_3,69277.0,182.70256859999958,140.0,113.6,183.0,12.876373371960376,13.6,12.578061831393438,15.0,0,0,0.0,150.0,-1402.088,0.0252215154,28.6277561,28.463583,-2.638237,-3.34935546,-3.35387,-2.083348,2.08187962,-0.387573868,-26.0000134,13.6,1,0,0,0,63.0399,62.70511,VFE,472.0,134.4,150.0,8.1,10.0,0.5,0.0,-1.2604424825262888,-1.1291040025262893,0.4984199912787033,27.761993514223775,0.4984199912787033,0.4984199912787033,-7,-0.35,-0.6,-0.0,0.2,0.0045,0.06,0.0,0.005,0.0,0.005,-0.0,6.272644000000014,1.1340965405669383,WAITING_CAPTURE
0.011492199999338482,1,5,Approach,2195.83716,183.390411,191.6354,-1401.73145,55.930538177490234,37.15078353881836,66.11899,70.28287,3.6940155,-3.81188965,0.8249801,-4.13126824915049,0.31937859915049005,0.28945065121584945,0.0,64.0,-0.0383232757,-0.174440175,-0.24724694,0.996801,61.5275306,-6.1287375799999975,-618.3388696504574,-1.8249533791897667,-0.97364559999705,1.1750888705243139,7.1,2.001130256000437,28.822319,26.16688,FLAPS_3,69277.0,182.7023185999996,140.0,113.6,183.0,12.876373371960376,13.6,12.556994772809887,15.0,0,0,0.0,150.0,-1401.73145,0.025876658,28.6277561,28.463583,-2.63320231,-3.25761557,-3.26172614,-2.12974477,2.127576,-0.36003688,-26.0000134,13.6,1,0,0,0,63.0752563,62.73981,VFE,472.0,134.4,150.0,8.1,10.0,0.5,0.0,-1.2602140431539115,-1.128875563153912,0.49840980904792537,27.761426363969445,0.49840980904792537,0.49840980904792537,-7,-0.35,-0.6,-0.0,0.2,0.0045,0.06,0.0,0.005,0.0,0.005,-0.0,6.282870000000003,1.13126824915049,WAITING_CAPTURE
0.011927499996090773,1,5,Approach,2193.30542,183.481537,191.732758,-1400.26868,55.930538177490234,37.15078353881836,66.13486,70.30652,3.65959167,-3.75292969,0.8804659,-4.12488363083415,0.3719539408341497,0.2895853991516616,0.0,64.0,-0.0383232757,-0.174440175,-0.24724694,0.996801,61.5275306,-6.14529258,-618.8555740608879,-1.8255505177149265,-0.9721455999970501,1.172119658908668,7.1,2.0012102560004372,28.748703,26.0882988,FLAPS_3,69277.0,182.7020685999996,140.0,113.6,183.0,12.876036502120845,13.6,12.504082561286696,15.0,0,0,0.0,150.0,-1400.26868,0.0280011762,28.6277561,28.463583,-2.623133,-3.09223819,-3.09543514,-2.2049005,2.19800925,-0.310784459,-26.0000134,13.6,1,0,0,0,63.1503,62.8135033,VFE,472.0,134.4,150.0,8.1,10.0,0.47376778851811924,0.0,-1.3361324790010318,-1.2047939990010326,0.4983982730578633,27.760783809322987,0.4983982730578633,0.4983982730578633,-7,-0.35,-0.6,-0.0,0.2,0.0045,0.06,1.2513528405013274e-05,0.005,0.0,0.005,-0.0,6.306520000000006,1.1248836308341499,WAITING_CAPTURE
0.012296399996557739,1,5,Approach,2192.31836,183.5728,191.732758,-1399.36853,55.930538177490234,37.15078353881836,66.13486,70.30652,3.65959167,-3.75292969,0.8804659,-4.122241130834048,0.3693114408340481,0.28972393911251604,0.0,64.0,-0.0383232757,-0.174440175,-0.24724694,0.996801,61.5275306,-6.14529258,-618.8555740608879,-1.8255505177149265,-0.9706455999970501,1.170769433908668,7.1,2.0012902560004373,28.71189,26.0490074,FLAPS_3,69277.0,182.7018185999996,140.0,113.6,183.0,12.87569015221871,13.6,12.506378711384661,15.0,0,0,0.0,150.0,-1399.36853,0.0280011762,28.6277561,28.463583,-2.61809826,-3.041085,-3.04396772,-2.21427512,2.21468449,-0.2883991,-26.0000134,13.6,1,0,0,0,63.1698036,62.83268,VFE,472.0,134.4,150.0,8.1,10.0,0.47449128820684616,0.0,-1.412125824757008,-1.2807873447570088,0.49838538304685204,27.76006583570966,0.49838538304685204,0.49838538304685204,-7,-0.35,-0.6,-0.0,0.2,0.0045,0.06,2.503380681002655e-05,0.005,0.0,0.005,-0.0,6.306520000000006,1.1222411308340483,WAITING_CAPTURE
0.012751000002026558,1,5,Approach,2191.11182,183.5728,191.8308,-1397.9718,55.93070983886719,37.15095520019531,66.15039,70.329834,3.62146,-3.69073486,0.918939769,-4.11604333732308,0.42530847732307997,0.28972393911251604,0.0,64.0,-0.03884299,-0.174969569,-0.250599935483871,0.9998261085714286,61.49400064516129,-6.185083348387098,-618.1658652099316,-1.8225859877173634,-0.9691455999970502,1.1697089021851028,7.1,2.0013702560004374,28.65052,25.9835243,FLAPS_3,69277.0,182.7015685999996,140.0,113.6,183.0,12.87569015221871,13.6,12.45038167489563,15.0,0,0,0.0,150.0,-1397.9718,0.0316307172,28.6277561,28.463583,-2.609707,-2.988082,-2.99032664,-2.24499154,2.25036526,-0.254085,-26.0000134,13.6,1,0,0,0,63.229744,62.89161,VFE,472.0,134.4,150.0,8.1,10.0,0.44416161847652214,0.0,-1.4118192640495193,-1.2804807840495198,0.49837250883899004,27.759348742331746,0.49837250883899004,0.49837250883899004,-7,-0.35,-0.6,-0.0,0.2,0.0045,0.06,3.728095848003982e-05,0.005,0.0,0.005,-0.0,6.329834000000005,1.11604333732308,WAITING_CAPTURE
0.013141600000381004,1,5,Approach,2190.156,183.664413,191.8308,-1396.69873,55.93070983886719,37.15095520019531,66.15698,70.33972,3.60388184,-3.66333,0.931209564,-4.112307907145316,0.4489779071453155,0.28985961270845634,0.0,64.0,-0.03884299,-0.174969569,-0.250599935483871,0.9998261085714286,61.49400064516129,-6.1920035483870945,-618.1658652099316,-1.8225859877173634,-0.9676455999970502,1.1677992971851028,7.1,2.0014502560004375,28.6136951,25.9442348,FLAPS_3,69277.0,182.7013185999996,140.0,113.6,183.0,12.875350968228858,13.6,12.426373061083542,15.0,0,0,0.0,150.0,-1396.69873,0.0328714438,28.6277561,28.463583,-2.60467243,-2.97933531,-2.97996378,-2.24698043,2.24392414,-0.236654818,-26.0000134,13.6,1,0,0,0,63.2706528,62.9318466,VFE,472.0,134.4,150.0,8.1,10.0,0.4312915557262647,0.0,-1.4880667588889263,-1.3567282788889268,0.49835827712072456,27.75855603562436,0.49835827712072456,0.49835827712072456,-7,-0.35,-0.6,-0.0,0.2,0.0045,0.06,4.941153828005309e-05,0.005,0.0,0.005,-0.0,6.33972,1.1123079071453157,WAITING_CAPTURE
0.013526099995942786,1,5,Approach,2189.21484,183.664413,191.915344,-1395.28589,55.93070983886719,37.15095520019531,66.1658,70.35278,3.5793,-3.62626648,0.9456809,-4.1063587576004466,0.4800922776004466,0.28985961270845634,0.0,64.0,-0.03884299,-0.174969569,-0.250599935483871,0.9998261085714286,61.49400064516129,-6.201145548387092,-618.614562365537,-1.8231050834150355,-0.9661455999970503,1.1650069914516947,7.1,2.0015302560004375,28.5768661,25.9049435,FLAPS_3,69277.0,182.70106859999962,140.0,113.6,183.0,12.875350968228858,13.6,12.395258690628411,15.0,0,0,0.0,150.0,-1395.28589,0.0353228971,28.6277561,28.463583,-2.59963775,-2.997331,-2.99712873,-2.51099277,2.49749255,-0.219972819,-26.0000134,13.6,1,0,0,0,63.3121,62.97261,VFE,472.0,134.4,150.0,8.1,10.0,0.4136376448785438,0.0,-1.487721845054478,-1.3563833650544783,0.49834406296613165,27.757764307213534,0.49834406296613165,0.49834406296613165,-7,-0.35,-0.6,-0.0,0.2,0.0045,0.06,6.138208224006636e-05,0.005,0.0,0.005,-0.0,6.352779999999996,1.1063587576004466,WAITING_CAPTURE
0.013929799999459647,1,5,Approach,2186.783,183.742844,191.915344,-1391.50037,55.93070983886719,37.151126861572266,66.1724243,70.36249,3.55986023,-3.59809875,0.955940068,-4.095255841056213,0.49715709105621286,0.28997926677870856,0.0,64.0,-0.0393298529,-0.175451666,-0.25374098645161286,1.0025809485714288,61.46259013548387,-6.22992990516129,-617.512626365537,-1.8198597782573813,-0.9646455999970504,1.1609816154516945,7.1,2.0016102560004376,28.50319,25.8263645,FLAPS_3,69277.0,182.70081859999962,140.0,113.6,183.0,12.875051833053227,13.6,12.377894741997014,15.0,0,0,0.0,150.0,-1391.50037,0.03732782,28.6277561,28.463583,-2.58956838,-3.034627,-3.03370714,-2.56093478,2.55260229,-0.19557929,-26.0000134,13.6,1,0,0,0,63.3749237,63.0344276,VFE,472.0,134.4,150.0,8.1,10.0,0.4004774824812144,0.0,-1.5529160759037772,-1.4215775959037775,0.49832869065640895,27.75690806956198,0.49832869065640895,0.49832869065640895,-7,-0.35,-0.6,-0.0,0.2,0.0045,0.06,7.323262141507962e-05,0.005,0.0,0.005,-0.0,6.36248999999998,1.095255841056213,WAITING_CAPTURE
0.014322299997729715,1,5,Approach,2186.783,183.742844,192.014435,-1391.50037,55.93070983886719,37.151126861572266,66.1813049,70.37537,3.53251648,-3.56007385,0.9686766,-4.093149627697723,0.5330757776977224,0.28997926677870856,0.0,64.0,-0.0393298529,-0.175451666,-0.25374098645161286,1.0025809485714288,61.46259013548387,-6.238945905161287,-618.0385282609535,-1.820469286488828,-0.9631455999970504,1.1601927626085697,7.1,2.0016902560004377,28.49091,25.8132668,FLAPS_3,69277.0,182.70056859999963,140.0,113.6,183.0,12.875051833053227,13.6,12.341976055355506,15.0,0,0,0.0,150.0,-1391.50037,0.0391594432,28.6277561,28.463583,-2.58789015,-3.05191422,-3.050405,-2.57564878,2.56747031,-0.191880375,-26.0000134,13.6,1,0,0,0,63.3959656,63.0551338,VFE,472.0,134.4,150.0,8.1,10.0,0.38243504581020193,0.0,-1.5525389061338584,-1.4212004261338589,0.4983133374007409,27.75605289322127,0.4983133374007409,0.4983133374007409,-7,-0.35,-0.6,-0.0,0.2,0.0045,0.06,8.491879854009291e-05,0.005,0.0,0.005,-0.0,6.375370000000004,1.0931496276977226,WAITING_CAPTURE
0.014776700001675636,1,5,Approach,2183.65234,183.925552,192.14209,-1384.86084,55.93070983886719,37.15129852294922,66.1948242,70.39444,3.488449,-3.502121,0.9868482,-4.0709877500084515,0.5688667500084517,0.29025334095623684,0.0,64.0,-0.0393298529,-0.175451666,-0.25374098645161286,1.0025809485714288,61.46259013548387,-6.252294905161286,-618.7160267871508,-1.8212535645138679,-0.9616455999970505,1.1492172198192738,7.1,2.001770256000438,28.392643,25.7086468,FLAPS_3,69277.0,182.70031859999963,140.0,113.6,183.0,12.874366647609408,13.6,12.305499897600956,15.0,0,0,0.0,150.0,-1384.86084,0.0448255241,28.6277561,28.463583,-2.57446432,-3.16100454,-3.1595335,-2.378542,2.3861692,-0.175361365,-26.0000134,13.6,1,0,0,0,63.5009537,63.1585121,VFE,472.0,134.4,150.0,8.1,10.0,0.35449691275864903,0.0,-1.7048360228567159,-1.5734975428567166,0.4982952643644225,27.755046225098337,0.4982952643644225,0.4982952643644225,-7,-0.35,-0.6,-0.0,0.2,0.0045,0.06,9.635093784010618e-05,0.005,0.0,0.005,-0.0,6.394440000000003,1.0709877500084515,WAITING_CAPTURE
0.015268700000888202,1,5,Approach,2182.49976,183.925552,192.21344,-1381.78552,55.93070983886719,37.15129852294922,66.20856,70.41324,3.44090271,-3.4430542,1.00591016,-4.060474951572786,0.6174207515727859,0.29025334095623684,0.0,64.0,-0.0398588367,-0.175959617,-0.2571537851612903,1.0054835257142858,61.4284621483871,-6.289344496129033,-617.9336690712416,-1.8182774177830965,-0.9601455999970505,1.1457777763931374,7.1,2.001850256000438,28.3312073,25.6445961,FLAPS_3,69277.0,182.70006859999964,140.0,113.6,183.0,12.874366647609408,13.6,12.256945896036623,15.0,0,0,0.0,150.0,-1381.78552,0.04904501,28.6277561,28.463583,-2.56607318,-3.245841,-3.24401355,-2.49470019,2.50131869,-0.1742448,-26.0000134,13.6,1,0,0,0,63.56328,63.21992,VFE,472.0,134.4,150.0,8.1,10.0,0.3260854668134412,0.0,-1.7043804231664268,-1.5730419431664275,0.4982772139479649,27.754040816901647,0.4982772139479649,0.4982772139479649,-7,-0.35,-0.6,-0.0,0.2,0.0045,0.06,0.00010752402654011944,0.005,0.0,0.005,-0.0,6.413240000000002,1.060474951572786,WAITING_CAPTURE
0.015664799997466616,1,5,Approach,2181.34668,184.017059,192.21344,-1379.32935,55.93070983886719,37.15129852294922,66.2155457,70.4225159,3.4158783,-3.413086,1.01587319,-4.053281399523956,0.6401953995239564,0.2903887373086363,0.0,64.0,-0.0398588367,-0.175959617,-0.2571537851612903,1.0054835257142858,61.4284621483871,-6.295837626129036,-617.9336690712416,-1.8182774177830965,-0.9586455999970506,1.1420935213931376,7.1,2.001930256000438,28.29434,25.6069622,FLAPS_3,69277.0,182.69981859999965,140.0,113.6,183.0,12.874028156728409,13.6,12.233832757204453,15.0,0,0,0.0,150.0,-1379.32935,0.05132076,28.6277561,28.463583,-2.56103849,-3.307908,-3.30518126,-2.669375,2.65833449,-0.17643635,-26.0000134,13.6,1,0,0,0,63.6044922,63.26038,VFE,472.0,134.4,150.0,8.1,10.0,0.3122857404204298,0.0,-1.7803907596995088,-1.6490522796995093,0.4982578144131364,27.752960262811698,0.4982578144131364,0.4982578144131364,-7,-0.35,-0.6,-0.0,0.2,0.0045,0.06,0.00011856900834013271,0.005,0.0,0.005,-0.0,6.422515900000008,1.0532813995239563,WAITING_CAPTURE
0.016110600001411512,1,5,Approach,2179.35571,184.095245,192.284927,-1374.09619,55.93070983886719,37.15147018432617,66.2249756,70.4347839,3.381134,-3.37265015,1.03078735,-4.0364580084738995,0.6638078584738993,0.29050813534523606,0.0,64.0,-0.0398588367,-0.175959617,-0.2571537851612903,1.0054835257142858,61.4284621483871,-6.304425226129041,-618.3130693073647,-1.8187171044891939,-0.9571455999970506,1.1336746810389529,7.1,2.002010256000438,28.2328854,25.5456657,FLAPS_3,69277.0,182.69956859999965,140.0,113.6,183.0,12.87372966163691,13.6,12.20992180316301,15.0,0,0,0.0,150.0,-1374.09619,0.05446195,28.6277561,28.463583,-2.55264735,-3.40974545,-3.407322,-2.85946751,2.85545516,-0.181486413,-26.0000134,13.6,1,0,0,0,63.66586,63.3200531,VFE,472.0,134.4,150.0,8.1,10.0,0.2933003358469981,0.0,-1.8452308711879635,-1.713892391187964,0.49823726722070294,27.751815784193155,0.49823726722070294,0.49823726722070294,-7,-0.35,-0.6,-0.0,0.2,0.0045,0.06,0.00012943877881514598,0.005,0.0,0.005,-0.0,6.4347839000000135,1.0364580084738995,WAITING_CAPTURE
0.01653729999816278,1,5,Approach,2178.664,184.095245,192.284927,-1371.28784,55.93070983886719,37.15147018432617,66.23456,70.4469,3.344635,-3.33158875,1.04665053,-4.028235562939648,0.6966468129396484,0.29050813534523606,0.0,64.0,-0.04035412,-0.1764183,-0.2603491612903226,1.0081045714285715,61.39650838709677,-6.335274129032268,-617.2646510216505,-1.8156353340428382,-0.9556455999970507,1.1310347834675243,7.1,2.002090256000438,28.19601,25.509779,FLAPS_3,69277.0,182.69931859999966,140.0,113.6,183.0,12.87372966163691,13.6,12.17708284869726,15.0,0,0,0.0,150.0,-1371.28784,0.0575201027,28.6277561,28.463583,-2.54761267,-3.46831942,-3.46562314,-2.989446,2.98181748,-0.185968041,-26.0000134,13.6,1,0,0,0,63.7064247,63.35904,VFE,472.0,134.4,150.0,8.1,10.0,0.2740583522699519,0.0,-1.844704871814848,-1.7133663918148485,0.49821674588877085,27.750672746004536,0.49821674588877085,0.49821674588877085,-7,-0.35,-0.6,-0.0,0.2,0.0045,0.06,0.00014013052299015927,0.005,0.0,0.005,-0.0,6.446899999999999,1.0282355629396482,WAITING_CAPTURE
0.016904399999475572,1,5,Approach,2178.664,184.095245,192.39949,-1371.28784,55.93070983886719,37.15147018432617,66.24188,70.4559,3.31604,-3.30036926,1.05908144,-4.02584486599108,0.7254756059910799,0.29050813534523606,0.0,64.0,-0.04035412,-0.1764183,-0.2603491612903226,1.0081045714285715,61.39650838709677,-6.341574129032258,-617.872666874196,-1.8163411188526535,-0.9541455999970507,1.1301227596887058,7.1,2.002170256000438,28.15913,25.4745731,FLAPS_3,69277.0,182.69906859999966,140.0,113.6,183.0,12.87372966163691,13.6,12.148254055645829,15.0,0,0,0.0,150.0,-1371.28784,0.059801966,28.6277561,28.463583,-2.542578,-3.49783254,-3.49629617,-2.7367084,2.74987268,-0.1907889,-26.0000134,13.6,1,0,0,0,63.7266159,63.3782654,VFE,472.0,134.4,150.0,8.1,10.0,0.2597863812673535,0.0,-1.844180739603213,-1.7128422596032133,0.4981962503631733,27.749531145228755,0.4981962503631733,0.4981962503631733,-7,-0.35,-0.6,-0.0,0.2,0.0045,0.06,0.00015068852946017251,0.005,0.0,0.005,-0.0,6.4558999999999855,1.02584486599108,WAITING_CAPTURE
0.017273699995712377,1,5,Approach,2176.03,184.173477,192.39949,-1364.23413,55.93070983886719,37.151641845703125,66.24927,70.46481,3.28648376,-3.26878357,1.07106018,-4.005204060808759,0.7364204908087588,0.2906242534240984,0.0,64.0,-0.04035412,-0.1764183,-0.2603491612903226,1.0081045714285715,61.39650838709677,-6.347811129032248,-617.872666874196,-1.8163411188526535,-0.9526455999970508,1.119542194688706,7.1,2.0022502560004383,28.097662,25.4174385,FLAPS_3,69277.0,182.69881859999967,140.0,113.6,183.0,12.873439366439754,13.6,12.137018875630996,15.0,0,0,0.0,150.0,-1364.23413,0.06200505,28.6277561,28.463583,-2.53418684,-3.5841825,-3.581872,-2.90350842,2.90294313,-0.201575443,-26.0000134,13.6,1,0,0,0,63.7863541,63.43473,VFE,472.0,134.4,150.0,8.1,10.0,0.2453730381676339,0.0,-1.9090300161772331,-1.7776915361772336,0.4981746078916503,27.748325659564923,0.4981746078916503,0.4981746078916503,-7,-0.35,-0.6,-0.0,0.2,0.0045,0.06,0.00016111115032518578,0.005,0.0,0.005,-0.0,6.46481,1.005204060808759,WAITING_CAPTURE
0.0429772999996203,1,5,Approach,2139.32471,185.79686,194.233032,-1112.339,55.93088150024414,37.15370178222656,66.56909,70.75098,1.46060181,-1.71327209,0.630897641,-3.236678939606854,1.523406849606854,0.2930601772886597,0.0,64.0,-0.0456329733,-0.179870054,-0.2944062793548387,1.0278288800000002,61.05593720645161,-6.786529955483877,-619.7140311642479,-1.8045647455469336,-0.9140901999911889,0.738937453253628,7.1,2.004306544000751,26.4870853,24.4840069,FLAPS_3,69277.0,182.6923926999987,140.0,113.6,183.0,12.86734955677835,13.6,11.343942707171497,15.0,0,0,0.0,150.0,-1112.339,0.107789271,28.6277561,28.463583,-2.314339,-2.49613452,-2.44396687,1.29973066,-1.35055912,0.08137356,-26.0000134,13.6,1,0,0,0,64.71367,64.29775,VFE,472.0,134.4,150.0,8.1,10.0,-0.46954369042694777,0.0,-3.255908317218412,-3.1245698372184125,0.49702051279629206,27.68404256275347,0.49702051279629206,0.49702051279629206,-7,-0.35,-0.6,-0.0,0.2,0.0045,0.06,0.00025354948266537706,0.005,0.0,0.005,-0.0,6.750979999999998,0.23667893960685404,WAITING_CAPTURE
0.0865122999966843,1,5,Approach,2138.7666,185.79686,194.320648,-1104.37634,55.93088150024414,37.15370178222656,66.5762939,70.754425,1.43405151,-1.69523621,0.590119362,-3.212112056929901,1.516875846929901,0.2930601772886597,0.0,64.0,-0.0456329733,-0.179870054,-0.2944062793548387,1.0278288800000002,61.05593720645161,-6.788941455483876,-620.1790322286113,-1.805104180454477,-0.8487876999955929,0.7262959616570831,7.1,2.007789344000516,26.4379578,24.467886,FLAPS_3,69277.0,182.68150894999943,140.0,113.6,183.0,12.86734955677835,13.6,11.35047370984845,15.0,0,0,0.0,150.0,-1104.37634,0.116902463,28.6277561,28.463583,-2.307626,-3.6889894,-3.61891365,0.222750485,-0.3016357,0.04864844,-26.0000134,13.6,1,0,0,0,64.72173,64.30733,VFE,472.0,134.4,150.0,8.1,10.0,-0.3416222812226903,0.0,-3.2049455079077473,-3.073607027907748,0.49517006525325646,27.580972634606386,0.49517006525325646,0.49517006525325646,-7,-0.35,-0.6,-0.0,0.2,0.0045,0.06,0.0004193750941278822,0.005,0.0,0.005,-0.0,6.754424999999998,0.2121120569299011,WAITING_CAPTURE
0.13330339999811258,1,5,Approach,2139.94678,185.861359,194.320648,-1087.1438,55.93088150024414,37.153873443603516,66.58365,70.75778,1.40858459,-1.67805481,0.5769268,-3.16209320726908,1.4840383972690803,0.29315784579462345,0.0,64.0,-0.0462057553,-0.18009153,-0.29810164709677417,1.0290944571428573,61.018983529032255,-6.817157529677419,-619.6728013714685,-1.8036317094778385,-0.7786010499934505,0.7012064979427973,7.1,2.0115326320006304,26.3888416,24.4522648,FLAPS_3,69277.0,182.66981117499907,140.0,113.6,183.0,12.86710538551344,13.6,11.38306698824436,15.0,0,0,0.0,150.0,-1087.1438,0.124812327,28.6213,28.4699917,-2.300913,-4.94250727,-4.83496332,-0.866555631,0.745265067,0.02255832,-26.0000134,13.6,1,0,0,0,64.73284,64.32081,VFE,472.0,134.4,150.0,8.1,10.0,-0.2287624659461803,0.0,-3.2069872036957032,-3.085940563695703,0.4932471442950743,27.47386593723564,0.4932471442950743,0.4932471442950743,-7,-0.35,-0.6,-0.0,0.2,0.0045,0.06,0.0006087640328679543,0.005,0.0,0.005,-0.0,6.757779999999997,0.16209320726908016,WAITING_CAPTURE
0.17840289999730885,1,5,Approach,2139.40137,185.935669,194.394165,-1080.06091,55.93088150024414,37.153873443603516,66.59372,70.762085,1.37532043,-1.65487671,0.595646262,-3.1403474361924557,1.4854707261924558,0.2932688992551413,0.0,64.0,-0.0462057553,-0.18009153,-0.29810164709677417,1.0290944571428573,61.018983529032255,-6.8201710296774305,-620.0629753493811,-1.8040845217148374,-0.7109517999946561,0.6899969019759283,7.1,2.015140592000566,26.3397579,24.4371281,FLAPS_3,69277.0,182.65853629999927,140.0,113.6,183.0,12.866827751862147,13.6,11.38135702566969,15.0,0,0,0.0,150.0,-1080.06091,0.129001841,28.6213,28.4699917,-2.29420018,-3.53338528,-3.499496,-1.95052183,1.78530693,0.00757985236,-26.0000134,13.6,1,0,0,0,64.739624,64.32926,VFE,472.0,134.4,150.0,8.1,10.0,-0.14327966417014562,0.0,-3.2301521428896667,-3.109105502889667,0.49144017935986967,27.37321799034474,0.49144017935986967,0.49144017935986967,-7,-0.35,-0.6,-0.0,0.2,0.0045,0.06,0.0008003314695190772,0.005,0.0,0.005,-0.0,6.762085000000013,0.1403474361924557,WAITING_CAPTURE
0.22615599999699043,1,5,Approach,2139.80322,186.009369,194.478516,-1062.60339,55.93088150024414,37.15404510498047,66.609375,70.76831,1.32437134,-1.62078857,0.5327915,-3.0883502172328545,1.4675616472328545,0.2933803920633468,0.0,64.0,-0.0462057553,-0.18009153,-0.29810164709677417,1.0290944571428573,61.018983529032255,-6.824528529677411,-620.5106482034273,-1.8046036416418414,-0.6393221499951337,0.663139112694859,7.1,2.0189608400005405,26.2662144,24.4152927,FLAPS_3,69277.0,182.64659802499935,140.0,113.6,183.0,12.866549019841631,13.6,11.398987372608778,15.0,0,0,0.0,150.0,-1062.60339,0.10783267,28.300806,28.16263,-2.28413081,-1.9474566,-1.95508242,-3.57482123,3.34038854,-0.00065597723,-26.0000134,13.6,1,0,0,0,64.75159,64.34496,VFE,472.0,134.4,150.0,8.1,10.0,-0.07395699979815407,0.0,-2.9996871277387585,-2.8891463277387572,0.4895758848281165,27.269376784926088,0.4895758848281165,0.4895758848281165,-7,-0.35,-0.6,-0.0,0.2,0.0045,0.06,0.0010112377579727756,0.005,0.0,0.005,-0.0,6.768309999999985,0.08835021723285452,WAITING_CAPTURE
0.27307099999597995,1,5,Approach,2138.959,186.009369,194.55043,-1054.92908,55.93088150024414,37.15404510498047,66.62836,70.7750854,1.258728,-1.58946228,0.359779924,-3.0649571231324844,1.4754948431324844,0.2933803920633468,0.0,64.0,-0.0467406325,-0.180269241,-0.30155246774193545,1.0301099485714287,60.98447532258064,-6.853427054193551,-620.4861180689809,-1.8038657588226448,-0.5689496499966494,0.6516644428965288,7.1,2.0227140400004595,26.2050152,24.39787,FLAPS_3,69277.0,182.6348692749996,140.0,113.6,183.0,12.866549019841631,13.6,11.391054176709147,15.0,0,0,0.0,150.0,-1054.92908,0.09286668,28.300806,28.16263,-2.27573967,-1.19156027,-1.21614468,-4.928314,4.63318968,-0.006345287,-26.0000134,13.6,1,0,0,0,64.75793,64.35464,VFE,472.0,134.4,150.0,8.1,10.0,-0.01759039425085146,0.0,-2.9696502067565804,-2.859109406756579,0.4878349502153088,27.1724067269927,0.4878349502153088,0.4878349502153088,-7,-0.35,-0.6,-0.0,0.2,0.0045,0.06,0.0012266858331328673,0.005,0.0,0.005,-0.0,6.775085399999995,0.06495712313248436,WAITING_CAPTURE
0.3166129000019282,1,5,Approach,2138.115,186.071732,194.55043,-1044.659,55.93088150024414,37.15421676635742,66.63675,70.77786,1.22709656,-1.58023071,0.265578955,-3.035174826158261,1.454944116158261,0.2934723975291156,0.0,64.0,-0.0467406325,-0.180269241,-0.30155246774193545,1.0301099485714287,60.98447532258064,-6.855369274193557,-620.4861180689809,-1.8038657588226448,-0.503636799987727,0.6362593228965289,7.1,2.0261973920009355,26.1561089,24.3844147,FLAPS_3,69277.0,182.62398379999811,140.0,113.6,183.0,12.86631900617721,13.6,11.41137489001895,15.0,0,0,0.0,150.0,-1044.659,0.08785013,27.9777927,27.85172,-2.26902676,-0.9923465,-0.99518764,-6.01109076,5.66692543,-0.0110636177,-26.0000134,13.6,1,0,0,0,64.759964,64.35916,VFE,472.0,134.4,150.0,8.1,10.0,0.03496026831448806,0.0,-2.741496824294161,-2.640638664294163,0.48625071717462476,27.0841649466266,0.48625071717462476,0.48625071717462476,-7,-0.35,-0.6,-0.0,0.2,0.0045,0.06,0.00143763208282832,0.005,0.0,0.005,-0.0,6.777860000000004,0.03517482615826095,WAITING_CAPTURE
0.3624714999969001,1,5,Approach,2137.59277,186.071732,194.63353,-1037.03992,55.93088150024414,37.15421676635742,66.64819,70.78134,1.18043518,-1.57232666,0.149940774,-3.0117950421921584,1.4394683821921583,0.2934723975291156,0.0,64.0,-0.0467406325,-0.180269241,-0.30155246774193545,1.0301099485714287,60.98447532258064,-6.857805274193555,-620.9271515383084,-1.8043768659526667,-0.4348488999952692,0.6241691526925373,7.1,2.0298660800005335,26.11946,24.3745975,FLAPS_3,69277.0,182.61251914999937,140.0,113.6,183.0,12.86631900617721,13.6,11.426850623985052,15.0,0,0,0.0,150.0,-1037.03992,0.089407824,27.9777927,27.85172,-2.263992,-1.46186447,-1.4392184,-6.8231864,6.44217634,-0.01716083,-26.0000134,13.6,1,0,0,0,64.75948,64.36135,VFE,472.0,134.4,150.0,8.1,10.0,0.08250361124068498,0.0,-2.7222720297956724,-2.6214138697956737,0.48465650769716995,26.99536747873237,0.48465650769716995,0.48465650769716995,-7,-0.35,-0.6,-0.0,0.2,0.0045,0.06,0.001672366202024871,0.005,0.0,0.005,-0.0,6.78134,0.011795042192158434,WAITING_CAPTURE
0.4083200999957626,1,5,Approach,2132.59253,186.143921,194.715134,-1020.35938,55.93088150024414,37.15421676635742,66.66608,70.78613,1.09863281,-1.56790161,0.0181564465,-2.962198342886121,1.394296732886121,0.29358275863827726,0.0,64.0,-0.0472780354,-0.1804323,-0.30501958322580647,1.0310417142857142,60.94980416774194,-6.885428082580648,-620.9875390580212,-1.8037964546138252,-0.3660759999969755,0.5990577614129682,7.1,2.0335339680004423,26.04621,24.3556442,FLAPS_3,69277.0,182.60105699999966,140.0,113.6,183.0,12.866043103404307,13.6,11.471746370518186,15.0,0,0,0.0,150.0,-1020.35938,0.09121192,27.9777927,27.85172,-2.2539227,-2.2774415,-2.22349668,-7.81916475,7.64178753,-0.03635779,-26.0000134,13.6,1,0,0,0,64.7492447,64.35687,VFE,472.0,134.4,150.0,8.1,10.0,0.12448113710540175,0.0,-2.768901358576845,-2.668043198576847,0.48308201429383935,26.907668196166853,0.48308201429383935,0.48308201429383935,-7,-0.35,-0.6,-0.0,0.2,0.0045,0.06,0.0019203252995012503,0.005,0.0,0.005,-0.0,6.786130000000014,0.03780165711387884,WAITING_CAPTURE
0.45544559999689227,1,5,Approach,2129.85278,186.2154,194.715134,-1007.41425,55.93088150024414,37.154388427734375,66.67847,70.789,1.03547668,-1.56840515,-0.0248123948,-2.9246830897243394,1.3562779397243394,0.2936886808208014,0.0,64.0,-0.0472780354,-0.1804323,-0.30501958322580647,1.0310417142857142,60.94980416774194,-6.887437082580649,-620.9875390580212,-1.8037964546138252,-0.29538774999528095,0.5796400664129683,7.1,2.0373040080005325,25.985218,24.340519,FLAPS_3,69277.0,182.58927562499937,140.0,113.6,183.0,12.865778297947998,13.6,11.509500358223658,15.0,0,0,0.0,150.0,-1007.41425,0.09692484,27.6808262,27.5658073,-2.24553156,-3.142632,-3.10011029,-7.94099855,7.87037945,-0.05814278,-26.0000134,13.6,1,0,0,0,64.73278,64.34514,VFE,472.0,134.4,150.0,8.1,10.0,0.1638541202705602,0.0,-2.580490917207261,-2.4884757972072618,0.4814823828226811,26.818568723223336,0.4814823828226811,0.4814823828226811,-7,-0.35,-0.6,-0.0,0.2,0.0045,0.06,0.002190287416185372,0.005,0.0,0.005,-0.0,6.788999999999987,0.07531691027566056,WAITING_CAPTURE
0.5000275999991572,1,5,Approach,2129.85278,186.2154,194.794952,-1007.41425,55.93088150024414,37.154388427734375,66.68802,70.7910156,0.9836731,-1.56958008,-0.0387522168,-2.9234867686541937,1.3539066886541937,0.2936886808208014,0.0,64.0,-0.0472780354,-0.1804323,-0.30501958322580647,1.0310417142857142,60.94980416774194,-6.8888480025806444,-621.411154093578,-1.8042869974056905,-0.22851474999188348,0.579004643859633,7.1,2.0408705680007135,25.94864,24.3317261,FLAPS_3,69277.0,182.5781301249988,140.0,113.6,183.0,12.865778297947998,13.6,11.511871609293804,15.0,0,0,0.0,150.0,-1007.41425,0.0994286239,27.6808262,27.5658073,-2.24049687,-3.5531373,-3.514252,-7.8661046,7.8313,-0.07924339,-26.0000134,13.6,1,0,0,0,64.7255,64.33952,VFE,472.0,134.4,150.0,8.1,10.0,0.196619268737572,0.0,-2.5733213023336776,-2.4813061823336784,0.48002674289929986,26.737489579491005,0.48002674289929986,0.48002674289929986,-7,-0.35,-0.6,-0.0,0.2,0.0045,0.06,0.0024593306016399393,0.005,0.0,0.005,-0.0,6.79101559999998,0.07651323134580634,WAITING_CAPTURE
0.5467304999983753,1,5,Approach,2126.69556,186.276108,194.862091,-993.804443,55.93088150024414,37.15456008911133,66.71106,70.795166,0.849212646,-1.57208252,-0.000317307422,-2.8830666264439557,1.3109841064439558,0.29378105594462456,0.0,64.0,-0.04785924,-0.180591226,-0.3087692903225806,1.0319498628571429,60.91230709677419,-6.918001232258066,-621.4042189261038,-1.8036456315555727,-0.1584603999930564,0.5586003361108443,7.1,2.044606800000651,25.8755112,24.3147469,FLAPS_3,69277.0,182.566454399999,140.0,113.6,183.0,12.86554736013844,13.6,11.554563253694484,15.0,0,0,0.0,150.0,-993.804443,0.108441249,27.4227753,27.3169575,-2.2304275,-4.89234161,-4.842948,-7.59376049,7.59368563,-0.139835179,-26.0000134,13.6,1,0,0,0,64.68594,64.30706,VFE,472.0,134.4,150.0,8.1,10.0,0.2275190903961556,0.0,-2.414699883848975,-2.3300456438489747,0.478518124144227,26.653459514833447,0.478518124144227,0.478518124144227,-7,-0.35,-0.6,-0.0,0.2,0.0045,0.06,0.0027564217379230905,0.005,0.0,0.005,-0.0,6.795165999999995,0.11693337355604427,WAITING_CAPTURE
0.5943587000001571,1,5,Approach,2122.52612,186.346649,194.862091,-981.923767,55.93088150024414,37.15456008911133,66.72119,70.79669,0.7863922,-1.571579,0.0468612947,-2.848657421139239,1.2770784211392388,0.29388591460274605,0.0,64.0,-0.04785924,-0.180591226,-0.3087692903225806,1.0319498628571429,60.91230709677419,-6.919068032258059,-621.4042189261038,-1.8036456315555727,-0.08701809999038368,0.5407793221108443,7.1,2.0484170560007935,25.81459,24.3011971,FLAPS_3,69277.0,182.55454734999856,140.0,113.6,183.0,12.865285213493134,13.6,11.588206792353896,15.0,0,0,0.0,150.0,-981.923767,0.110959761,27.4227753,27.3169575,-2.22203636,-5.657746,-5.60852337,-7.29314756,7.3067,-0.204910815,-26.0000134,13.6,1,0,0,0,64.6443939,64.2712555,VFE,472.0,134.4,150.0,8.1,10.0,0.2541731964137398,0.0,-2.4737374309135407,-2.3890831909135404,0.47698745620170657,26.568201310435057,0.47698745620170657,0.47698745620170657,-7,-0.35,-0.6,-0.0,0.2,0.0045,0.06,0.003074603073495265,0.005,0.0,0.005,-0.0,6.796690000000012,0.1513425788607612,WAITING_CAPTURE
0.6420555000004242,1,5,Approach,2121.35571,186.416565,194.9389,-977.2696,55.93088150024414,37.15456008911133,66.7314148,70.7980957,0.720871,-1.56947327,0.106777765,-2.8340620243342967,1.2645887543342966,0.293991997374425,0.0,64.0,-0.04785924,-0.180591226,-0.3087692903225806,1.0319498628571429,60.91230709677419,-6.920052022258073,-621.8118644104068,-1.8041173926714844,-0.015472899989983024,0.5331866033843898,7.1,2.052232800000815,25.7658615,24.2907352,FLAPS_3,69277.0,182.5426231499985,140.0,113.6,183.0,12.865020006563938,13.6,11.600431252229642,15.0,0,0,0.0,150.0,-977.2696,0.1134239,27.1647263,27.06811,-2.21532345,-6.380048,-6.33585167,-7.07324934,7.08594751,-0.264478147,-26.0000134,13.6,1,0,0,0,64.6107559,64.2417,VFE,472.0,134.4,150.0,8.1,10.0,0.27755326273458425,0.0,-2.3284968421957895,-2.2512038021957888,0.4754604450889461,26.4831467914543,0.4754604450889461,0.4754604450889461,-7,-0.35,-0.6,-0.0,0.2,0.0045,0.06,0.003408146875314455,0.005,0.0,0.005,-0.0,6.798095700000005,0.16593797566570334,WAITING_CAPTURE
0.6859981000015978,1,5,Approach,2119.72974,186.416565,195.013962,-971.34314,55.93088150024414,37.15473175048828,66.75543,70.80081,0.5590515,-1.55567932,0.304461658,-2.815820679122296,1.260141359122296,0.293991997374425,0.0,64.0,-0.0484017,-0.180707186,-0.3122690322580645,1.0326124914285715,60.877309677419355,-6.946450225806455,-621.9451866794846,-1.8038098515162215,0.050441000011777315,0.5240969299807731,7.1,2.055748208000909,25.704958,24.27811,FLAPS_3,69277.0,182.5316374999982,140.0,113.6,183.0,12.865020006563938,13.6,11.604878647441643,15.0,0,0,0.0,150.0,-971.34314,0.119490683,27.1647263,27.06811,-2.20693231,-7.09291172,-7.042343,-6.79161549,6.80811167,-0.340445936,-26.0000134,13.6,1,0,0,0,64.55102,64.18847,VFE,472.0,134.4,150.0,8.1,10.0,0.2918099496937122,0.0,-2.333009659800658,-2.2557166198006575,0.4740979611728108,26.40725643732556,0.4740979611728108,0.4740979611728108,-7,-0.35,-0.6,-0.0,0.2,0.0045,0.06,0.00372574383780661,0.005,0.0,0.005,-0.0,6.800810000000013,0.18417932087770383,WAITING_CAPTURE
0.730573100001493,1,5,Approach,2117.538,186.4854,195.013962,-964.4016,55.93088150024414,37.15473175048828,66.7656555,70.80173,0.4864502,-1.54515076,0.408922851,-2.795729931254006,1.250579171254006,0.2940947971583825,0.0,64.0,-0.0484017,-0.180707186,-0.3122690322580645,1.0326124914285715,60.877309677419355,-6.9470942258064605,-621.9451866794846,-1.8038098515162215,0.11730350001162015,0.5136846199807732,7.1,2.0593142080009006,25.6562366,24.268362,FLAPS_3,69277.0,182.52049374999822,140.0,113.6,183.0,12.864763007104044,13.6,11.614183835850037,15.0,0,0,0.0,150.0,-964.4016,0.123024888,27.1647263,27.06811,-2.20021939,-7.54919529,-7.51705456,-6.60947752,6.6236,-0.4003103,-26.0000134,13.6,1,0,0,0,64.47976,64.1242,VFE,472.0,134.4,150.0,8.1,10.0,0.30719971603561524,0.0,-2.3986717727989246,-2.321378732798924,0.4727127194150876,26.330098471420378,0.4727127194150876,0.4727127194150876,-7,-0.35,-0.6,-0.0,0.2,0.0045,0.06,0.004059211381685907,0.005,0.0,0.005,-0.0,6.8017300000000205,0.20427006874599396,WAITING_CAPTURE
0.7767460999966715,1,5,Approach,2115.23413,186.53389,195.07695,-959.122253,55.93088150024414,37.154903411865234,66.78906,70.80328,0.311233521,-1.50727844,0.6829451,-2.779553205856464,1.2722747658564637,0.29416900449782407,0.0,64.0,-0.048945,-0.180779174,-0.3157741935483871,1.0330238514285714,60.84225806451613,-6.972715354838709,-622.1149364961634,-1.803719644225123,0.18656300000438797,0.5055109747557549,7.1,2.063008048000515,25.59533,24.2566013,FLAPS_3,69277.0,182.50895049999943,140.0,113.6,183.0,12.86457748875544,13.6,11.592302722898976,15.0,0,0,0.0,150.0,-959.122253,0.126070112,26.931879,26.842989,-2.19182825,-7.87027359,-7.84807873,-6.40678263,6.42021036,-0.468791544,-26.0000134,13.6,1,0,0,0,64.3977356,64.04945,VFE,472.0,134.4,150.0,8.1,10.0,0.30973422093117653,0.0,-2.2630949711921122,-2.191982971192113,0.4712884001743916,26.250763889713614,0.4712884001743916,0.4712884001743916,-7,-0.35,-0.6,-0.0,0.2,0.0045,0.06,0.004411155215291108,0.005,0.0,0.005,-0.0,6.803280000000001,0.22044679414353618,WAITING_CAPTURE
0.8245529999985592,1,5,Approach,2111.752,186.610657,195.1487,-950.0301,55.93088150024414,37.154903411865234,66.79877,70.80368,0.234146118,-1.48498535,0.808847845,-2.7522339988338977,1.2672486488338977,0.2942826698045955,0.0,64.0,-0.048945,-0.180779174,-0.3157741935483871,1.0330238514285714,60.84225806451613,-6.9729953548387185,-622.4957325421831,-1.8041598319324943,0.2582733500072195,0.4913015511867253,7.1,2.0668326000006663,25.53441,24.2452927,FLAPS_3,69277.0,182.49699877499896,140.0,113.6,183.0,12.86429332548851,13.6,11.597044676654614,15.0,0,0,0.0,150.0,-950.0301,0.128241122,26.931879,26.842989,-2.183437,-8.177642,-8.164731,-6.237773,6.248389,-0.530499756,-26.0000134,13.6,1,0,0,0,64.26245,63.96425,VFE,472.0,134.4,150.0,8.1,10.0,0.32115490515067197,0.0,-2.340256104452078,-2.2691441044520784,0.4698042158556801,26.168094823161383,0.4698042158556801,0.4698042158556801,-7,-0.35,-0.6,-0.0,0.2,0.0045,0.06,0.004786184289860105,0.005,0.0,0.005,-0.0,6.803679999999986,0.24776600116610226,WAITING_CAPTURE
0.8702837999953772,1,5,Approach,2109.59,186.610657,195.1487,-946.0987,55.93088150024414,37.154903411865234,66.81125,70.8039551,0.129928589,-1.44924927,0.9794559,-2.740862149655776,1.2916128796557762,0.2942826698045955,0.0,64.0,-0.048945,-0.180779174,-0.3157741935483871,1.0330238514285714,60.84225806451613,-6.973187924838705,-622.4957325421831,-1.8041598319324943,0.32686955000244644,0.4854044511867254,7.1,2.0704910640004117,25.4856586,24.236557,FLAPS_3,69277.0,182.48556607499975,140.0,113.6,183.0,12.86429332548851,13.6,11.572680445832734,15.0,0,0,0.0,150.0,-946.0987,0.129495189,26.6920128,26.61085,-2.1767242,-8.224605,-8.218149,-6.12602,6.13497066,-0.5709269,-26.0000134,13.6,1,0,0,0,64.1540451,63.9019127,VFE,472.0,134.4,150.0,8.1,10.0,0.3251075034726866,0.0,-2.162054216645882,-2.097123976645881,0.46842374816429844,26.091202772751423,0.46842374816429844,0.46842374816429844,-7,-0.35,-0.6,-0.0,0.2,0.0045,0.06,0.005151689295236628,0.005,0.0,0.005,-0.0,6.803955099999996,0.2591378503442239,WAITING_CAPTURE
0.9162922999967122,1,5,Approach,2107.9248,186.666672,195.218735,-940.7221,55.931053161621094,37.15507507324219,66.82889,70.80374,-0.028793335,-1.38291931,1.23121548,-2.724333373335779,1.341414063335779,0.294368595607362,0.0,64.0,-0.0495312549,-0.180798739,-0.3195564832258065,1.0331356514285717,60.804435167741936,-6.999513382580653,-622.8227066339323,-1.8044597074190527,0.395882300004449,0.47684909004910153,7.1,2.0741717440005187,25.4246941,24.2260189,FLAPS_3,69277.0,182.47406394999942,140.0,113.6,183.0,12.864078510981596,13.6,11.522664447645816,15.0,0,0,0.0,150.0,-940.7221,0.131264061,26.6920128,26.61085,-2.168333,-8.276557,-8.274544,-6.007681,6.01477671,-0.6195126,-26.0000134,13.6,1,0,0,0,63.9858055,63.7999878,VFE,472.0,134.4,150.0,8.1,10.0,0.3154838682183179,0.0,-2.225800550969351,-2.16087031096935,0.4670334164375771,26.013761295573048,0.4670334164375771,0.4670334164375771,-7,-0.35,-0.6,-0.0,0.2,0.0045,0.06,0.005519969267679817,0.005,0.0,0.005,-0.0,6.803740000000005,0.27566662666422115,WAITING_CAPTURE
0.9617259000006015,1,5,Approach,2106.47021,186.666672,195.277252,-936.5592,55.931053161621094,37.15507507324219,66.83972,70.80319,-0.135787964,-1.330368,1.39328766,-2.7114840915459717,1.3811160915459717,0.294368595607362,0.0,64.0,-0.0495312549,-0.180798739,-0.3195564832258065,1.0331356514285717,60.804435167741936,-6.9991283825806505,-623.1332716823633,-1.8048182520252818,0.46403270001028296,0.4701388924764551,7.1,2.07780643200083,25.3880959,24.21989,FLAPS_3,69277.0,182.46270554999845,140.0,113.6,183.0,12.864078510981596,13.6,11.482962419435625,15.0,0,0,0.0,150.0,-936.5592,0.132303312,26.6920128,26.61085,-2.16329837,-8.221746,-8.22383,-5.954977,5.960855,-0.6446781,-26.0000134,13.6,1,0,0,0,63.8700829,63.72657,VFE,472.0,134.4,150.0,8.1,10.0,0.31417405702886825,0.0,-2.2438483037436168,-2.178918063743615,0.465694405240431,25.93917837189201,0.465694405240431,0.465694405240431,-7,-0.35,-0.6,-0.0,0.2,0.0045,0.06,0.005886836644109165,0.005,0.0,0.005,-0.0,6.803190000000001,0.2885159084540283,WAITING_CAPTURE
1.008578499997384,1,5,Approach,2102.654,186.73056,195.343765,-926.164551,55.931053161621094,37.15524673461914,66.85449,70.80173,-0.297485352,-1.23986816,1.61627316,-2.680522464521458,1.440654304521458,0.29446328260901766,0.0,64.0,-0.0495312549,-0.180798739,-0.3195564832258065,1.0331356514285717,60.804435167741936,-6.998106382580644,-623.48627359747,-1.8052255286029466,0.5343116000054565,0.4540174161037949,7.1,2.0815546400005727,25.314846,24.2080631,FLAPS_3,69277.0,182.45099239999925,140.0,113.6,183.0,12.863841793477455,13.6,11.423187488955998,15.0,0,0,0.0,150.0,-926.164551,0.13322036,26.4579887,26.3839359,-2.153229,-7.97472239,-7.98155928,-5.862124,5.86636448,-0.684251666,-26.0000134,13.6,1,0,0,0,63.631546,63.5680275,VFE,472.0,134.4,150.0,8.1,10.0,0.29686579724905676,0.0,-2.1315566776952686,-2.0723144376952685,0.4643027109871315,25.861661001983226,0.4643027109871315,0.4643027109871315,-7,-0.35,-0.6,-0.0,0.2,0.0045,0.06,0.006260898849889819,0.005,0.0,0.005,-0.0,6.8017300000000205,0.31947753547854196,WAITING_CAPTURE
1.0552439999955823,1,5,Approach,2101.182,186.792267,195.343765,-921.3491,55.931053161621094,37.15524673461914,66.86319,70.80029,-0.4058075,-1.17245483,1.74914479,-2.6666056670940654,1.4941508370940655,0.29455605163076776,0.0,64.0,-0.0501183569,-0.180757135,-0.3233442380645161,1.0328979142857144,60.76655761935484,-7.023612666451623,-623.5813684546129,-1.8055006814940961,0.6043098500027541,0.44665159731808074,7.1,2.0852878800004286,25.2537537,24.1986217,FLAPS_3,69277.0,182.4393260249997,140.0,113.6,183.0,12.863609870923082,13.6,11.369459033829017,15.0,0,0,0.0,150.0,-921.3491,0.1340709,26.4579887,26.3839359,-2.14483786,-7.7040925,-7.71613026,-5.80867147,5.811897,-0.709244132,-26.0000134,13.6,1,0,0,0,63.50913,63.4832764,VFE,472.0,134.4,150.0,8.1,10.0,0.29308487535368116,0.0,-2.2057974832583582,-2.146555243258358,0.46290649922650123,25.78389200691612,0.46290649922650123,0.46290649922650123,-7,-0.35,-0.6,-0.0,0.2,0.0045,0.06,0.006634010104661423,0.005,0.0,0.005,-0.0,6.800290000000018,0.33339433290593457,WAITING_CAPTURE
1.1009139000016148,1,5,Approach,2098.044,186.843475,195.408188,-909.1491,55.931053161621094,37.155418395996094,66.86908,70.79895,-0.4872284,-1.118515,1.839363,-2.6304796019021053,1.5119646019021054,0.2946317588123155,0.0,64.0,-0.0501183569,-0.180757135,-0.3233442380645161,1.0328979142857144,60.76655761935484,-7.0226746664516035,-623.9232781922121,-1.8058948051196955,0.6728147000118029,0.42783873271168177,7.1,2.0889414720009114,25.2048435,24.1913357,FLAPS_3,69277.0,182.4279085499982,140.0,113.6,183.0,12.86342060296921,13.6,11.351456001067104,15.0,0,0,0.0,150.0,-909.1491,0.1342228,26.2448349,26.1767063,-2.138125,-7.38545227,-7.398899,-5.77701,5.779498,-0.724685,-26.0000134,13.6,1,0,0,0,63.32197,63.34966,VFE,472.0,134.4,150.0,8.1,10.0,0.2959653181979599,0.0,-2.101396450054475,-2.0468935700544737,0.46153593503614465,25.707551581513258,0.46153593503614465,0.46153593503614465,-7,-0.35,-0.6,-0.0,0.2,0.0045,0.06,0.007002154421909611,0.005,0.0,0.005,-0.0,6.798949999999991,0.3695203980978947,WAITING_CAPTURE
1.146775000001071,1,5,Approach,2096.61743,186.843475,195.408188,-903.4441,55.931053161621094,37.155418395996094,66.87604,70.796814,-0.595916748,-1.04269409,1.94522619,-2.6139960512584017,1.5713019612584018,0.2946317588123155,0.0,64.0,-0.0501183569,-0.180757135,-0.3233442380645161,1.0328979142857144,60.76655761935484,-7.021179466451598,-623.9232781922121,-1.8058948051196955,0.7059967875928543,0.4192812327116819,7.1,2.092610360000868,25.1559067,24.18427,FLAPS_3,69277.0,182.41644327499833,140.0,113.6,183.0,12.86342060296921,13.6,11.292118641710807,15.0,0,0,0.0,150.0,-903.4441,0.134631246,26.2448349,26.1767063,-2.131412,-7.124689,-7.13935,-5.75379944,5.755616,-0.7366846,-26.0000134,13.6,1,0,0,0,63.1949158,63.2563629,VFE,472.0,134.4,150.0,8.1,10.0,0.28167281200465505,0.0,-2.1258909874336434,-2.071388107433642,0.46018888678237097,25.632520993778066,0.46018888678237097,0.46018888678237097,-7,-0.35,-0.6,-0.0,0.2,0.0045,0.06,0.007363040414334013,0.005,0.0,0.005,-0.0,6.7968139999999835,0.38600394874159827,WAITING_CAPTURE
1.1938152000002447,1,5,Approach,2094.964,186.9006,195.470337,-895.379333,55.931053161621094,37.15559005737305,66.88452,70.79285,-0.759094238,-0.921875,2.07457185,-2.589871069979403,1.6679960699794032,0.29471849362082414,0.0,64.0,-0.0506212264,-0.1806762,-0.32658855741935483,1.0324354285714288,60.73411442580645,-7.041114901935483,-624.4381135018159,-1.8068096963650118,0.6959757088830658,0.4064118292472761,7.1,2.0963735760008015,25.1069355,24.1774254,FLAPS_3,69277.0,182.40468322499854,140.0,113.6,183.0,12.86320376594794,13.6,11.195207695968538,15.0,0,0,0.0,150.0,-895.379333,0.136100709,26.03168,25.9694748,-2.124699,-6.893392,-6.906645,-5.736638,5.73792839,-0.7450144,-26.0000134,13.6,1,0,0,0,63.00122,63.04728,VFE,472.0,134.4,150.0,8.1,10.0,0.23935750433809005,0.0,-2.0307940790607555,-1.9810299190607545,0.4587959255221526,25.5549330515839,0.4587959255221526,0.4587959255221526,-7,-0.35,-0.6,-0.0,0.2,0.0045,0.06,0.0077055085084500015,0.005,0.0,0.005,-0.0,6.792849999999987,0.4101289300205968,WAITING_CAPTURE
1.2385384000008344,1,5,Approach,2092.67017,186.955185,195.521622,-882.3644,55.931053161621094,37.15559005737305,66.88788,70.79053,-0.8406677,-0.858734131,2.12679482,-2.5516071487346763,1.6928730177346765,0.2947981776564414,0.0,64.0,-0.0506212264,-0.1806762,-0.32658855741935483,1.0324354285714288,60.73411442580645,-7.039490901935485,-624.7102964317132,-1.8071229192136176,0.6793096681396614,0.3864811553524302,7.1,2.0999514320008488,25.0456848,24.1691685,FLAPS_3,69277.0,182.3935024249984,140.0,113.6,183.0,12.863004555858897,13.6,11.17013153812422,15.0,0,0,0.0,150.0,-882.3644,0.138260365,26.03168,25.9694748,-2.116308,-6.65427732,-6.664697,-5.722293,5.72311354,-0.7537298,-26.0000134,13.6,1,0,0,0,62.8042145,62.8352127,VFE,472.0,134.4,150.0,8.1,10.0,0.22515023801228023,0.0,-2.1036936283050958,-2.0539294683050953,0.45746081085030776,25.480567164362142,0.45746081085030776,0.45746081085030776,-7,-0.35,-0.6,-0.0,0.2,0.0045,0.06,0.008015046590423656,0.005,0.0,0.005,-0.0,6.79052999999999,0.4483928512653237,WAITING_CAPTURE
1.2860013999961666,1,5,Approach,2092.21948,186.955185,195.578857,-875.292053,55.931053161621094,37.15576171875,66.89337,70.78415,-1.030838,-0.706542969,2.20372629,-2.5304423836436456,1.8238994146436456,0.2947981776564414,0.0,64.0,-0.0506212264,-0.1806762,-0.32658855741935483,1.0324354285714288,60.73411442580645,-7.03502490193548,-625.0140575703047,-1.8074722875660245,0.671693177578994,0.375416993144543,7.1,2.1037484720004755,24.972126,24.1596737,FLAPS_3,69277.0,182.38163667499956,140.0,113.6,183.0,12.863004555858897,13.6,11.039105141215252,15.0,0,0,0.0,150.0,-875.292053,0.138652936,25.8286,25.77137,-2.1062386,-5.89523649,-5.91228533,-5.71477842,5.71512651,-0.7508557,-26.0000134,13.6,1,0,0,0,62.6042,62.6203957,VFE,472.0,134.4,150.0,8.1,10.0,0.17195221442603423,0.0,-1.9709144415456048,-1.9251304415456043,0.45607136807866,25.403175201981362,0.45607136807866,0.45607136807866,-7,-0.35,-0.6,-0.0,0.2,0.0045,0.06,0.00830941509040756,0.005,0.0,0.005,-0.0,6.784150000000011,0.4695576163563544,WAITING_CAPTURE
1.330297000000428,1,5,Approach,2091.01733,186.999374,195.578857,-865.284241,55.931053161621094,37.15576171875,66.89502,70.77988,-1.139328,-0.6179962,2.21891522,-2.501547072729327,1.883550872729327,0.29486607959906874,0.0,64.0,-0.05120664,-0.180534482,-0.3303654193548387,1.0316256114285716,60.69634580645161,-7.058473935483871,-625.3379844274475,-1.808408426753128,0.6588030781065173,0.3599193848588287,7.1,2.1072921200008166,24.9475937,24.1566067,FLAPS_3,69277.0,182.3705627749985,140.0,113.6,183.0,12.862834801002329,13.6,10.979283928273002,15.0,0,0,0.0,150.0,-865.284241,0.139363244,25.8286,25.77137,-2.10288215,-5.7381773,-5.756445,-5.71365,5.71393251,-0.7501501,-26.0000134,13.6,1,0,0,0,62.4692535,62.4757919,VFE,472.0,134.4,150.0,8.1,10.0,0.15034285031113848,0.0,-2.0376963665680297,-1.9919123665680294,0.4547677360954147,25.3305629005146,0.4547677360954147,0.4547677360954147,-7,-0.35,-0.6,-0.0,0.2,0.0045,0.06,0.008563919745896873,0.005,0.0,0.005,-0.0,6.7798799999999915,0.49845292727067303,WAITING_CAPTURE
