time_s,active,flight_phase,control_mode,ra_ft,ias_kt,ground_speed_kt,vs_fpm,latitude_deg,longitude_deg,heading_deg,track_magnetic_deg,roll_deg,pitch_deg,body_pitch_rate_deg_s,flight_path_angle_deg,estimated_aoa_deg,mach,lateral_deviation,runway_heading_deg,loc_ddm,gs_ddm,loc_dots,gs_dots,target_heading_deg,target_roll_deg,target_vs_fpm,target_flight_path_angle_deg,target_pitch_deg,vertical_correction_deg,configured_aoa_deg,reference_aoa_deg,flaps_angle_deg,slats_angle_deg,flap_configuration,landing_weight_kg,target_ias_kt,vapp_kt,vsr1_kt,vfe_kt,alpha_prot_deg,alpha_sw_deg,alpha_margin_deg,roll_limit_deg,flare_armed,flare_active,flare_progress,flare_entry_ra_ft,flare_entry_vs_fpm,body_norm_accel_g,left_throttle_angle_deg,right_throttle_angle_deg,stabilizer_angle_deg,elevator_left_angle_deg,elevator_right_angle_deg,aileron_left_angle_deg,aileron_right_angle_deg,rudder_angle_deg,wind_direction_true_deg,wind_speed_kt,nose_gear_wow,left_gear_wow,right_gear_wow,main_gear_touchdown,eng_left_thrust,eng_right_thrust,envelope_warnings,touchdown_vs_limit_fpm,touchdown_speed_min_kt,touchdown_speed_max_kt,touchdown_pitch_limit_deg,aileron_cmd_deg,elevator_cmd,rudder_cmd_deg,throttle_left_rate_cmd_deg_s,throttle_right_rate_cmd_deg_s,throttle_cmd_norm,throttle_target_angle_deg,throttle_left_position_cmd_norm,throttle_right_position_cmd_norm,roll_kp,roll_ki,roll_kd,roll_i_term,pitch_kp,pitch_ki,pitch_kd,pitch_i_term,speed_kp,speed_ki,speed_kd,speed_i_term,criteria_course_error_deg,criteria_glideslope_error_deg,criteria_status
0.005827500001032604,1,5,Approach,2337.54517,175.950577,185.984,-81.76028,55.937232971191406,37.187347412109375,64.02431,54.91255,0.8983917,0.6159668,-0.0381513126,-0.2487206952940327,0.8646874952940328,0.2782124418783362,0.0,64.0,0.000952669943,0.0866458,0.0061462576967741935,-0.49511885714285714,64.06146257696774,6.404238803877422,-900.0,-2.7358013485212282,0.6072255499984511,-0.81823972,7.1,2.0,26.9518318,27.96318,FLAPS_3,69277.0,175.94912012499975,140.0,113.6,183.0,12.90446889530416,13.6,12.039781400010126,15.0,0,0,0.0,150.0,-81.76028,-0.0119983768,26.4809113,26.5443573,-3.57548,-0.278942257,-0.2788751,1.24833822,-1.24901533,0.408373326,154.0,29.1999989,1,0,0,0,60.04614,60.173912,,472.0,134.4,150.0,8.1,-10.0,-0.00174847922866455,0.0,0.024970768754007056,-0.025786031245994993,0.47598980135640884,26.512631935551973,0.47598980135640884,0.47598980135640884,-7,-0.35,-0.6,-0.0,0.2,0.0045,0.06,-2.2922835476873622e-07,0.005,0.0,0.005,-0.0,9.08744999999999,2.7512793047059674,WAITING_CAPTURE
0.007271200000104727,1,5,Approach,2337.68286,175.950775,185.980881,-82.69713,55.937232971191406,37.18751907348633,64.02911,54.9180145,0.9683838,0.613616943,-0.03722134,-0.25157484336888847,0.8651917863688885,0.27821257974261066,0.0,64.0,0.000952669943,0.0866458,0.0061462576967741935,-0.49511885714285714,64.06146257696774,6.40041365387741,-900.0,-2.7358471596829452,0.605059999999843,-0.81730287,7.1,2.0,26.9518318,27.96318,FLAPS_3,69277.0,175.94875919999998,140.0,113.6,183.0,12.904468550643474,13.6,12.039276764274586,15.0,0,0,0.0,150.0,-82.69713,-0.0118116168,26.4809113,26.5443573,-3.57548,-0.282601625,-0.28255713,1.14695549,-1.14703417,0.408550382,154.0,29.1999989,1,0,0,0,60.04609,60.1739426,,472.0,134.4,150.0,8.1,-10.0,-0.0010092545751240736,0.0,0.02470420562125935,-0.0260525943787427,0.4759897839509534,26.51263096606811,0.4759897839509534,0.4759897839509534,-7,-0.35,-0.6,-0.0,0.2,0.0045,0.06,-2.8481981847497765e-07,0.005,0.0,0.005,-0.0,9.081985500000002,2.7484251566311118,WAITING_CAPTURE
0.008084799999778625,1,5,Approach,2337.82,175.950775,185.978058,-83.39124,55.937232971191406,37.18751907348633,64.03265,54.92189,1.014679,0.612091064,-0.03662296,-0.25369023460902906,0.8657812986090291,0.27821257974261066,0.0,64.0,0.000952669943,0.0866458,0.0061462576967741935,-0.49511885714285714,64.06146257696774,6.397700803877416,-900.0,-2.735888624585813,0.603559999999843,-0.8166087599999999,7.1,2.0,26.9518318,27.96318,FLAPS_3,69277.0,175.9485092,140.0,113.6,183.0,12.904468550643474,13.6,12.038687252034444,15.0,0,0,0.0,150.0,-83.39124,-0.0116266757,26.4809113,26.5443573,-3.57548,-0.285799235,-0.285741717,1.11998272,-1.12021863,0.40750882,154.0,29.1999989,1,0,0,0,60.04606,60.1739769,,472.0,134.4,150.0,8.1,-10.0,-0.0005509992977986353,0.0,0.024634207909259603,-0.026122592090742445,0.4759897706487595,26.512630225135908,0.4759897706487595,0.4759897706487595,-7,-0.35,-0.6,-0.0,0.2,0.0045,0.06,-3.2320960647568417e-07,0.005,0.0,0.005,-0.0,9.07811000000001,2.746309765390971,WAITING_CAPTURE
0.008522100000845967,1,5,Approach,2337.90063,175.95108,185.978058,-84.07866,55.937232971191406,37.18751907348633,64.0345154,54.9239044,1.03770447,0.6113281,-0.036309436,-0.25578145466461244,0.8671095546646125,0.27821257974261066,0.0,64.0,0.00167959672,0.08777707,0.010836107870967742,-0.5015832571428571,64.10836107870968,6.429119675096786,-900.0,-2.735888624585813,0.602059999999843,-0.81592134,7.1,2.0,26.9518318,27.96318,FLAPS_3,69277.0,175.9482592,140.0,113.6,183.0,12.904468550643474,13.6,12.037358995978861,15.0,0,0,0.0,150.0,-84.07866,-0.0115507348,26.4809113,26.5443573,-3.57548,-0.288876921,-0.288795382,1.06988668,-1.07171869,0.406167418,154.0,29.1999989,1,0,0,0,60.04603,60.17402,,472.0,134.4,150.0,8.1,-10.0,-0.00047589353812849426,0.0,0.024309292778927346,-0.0264475072210747,0.47598975152855605,26.512629160140573,0.47598975152855605,0.47598975152855605,-7,-0.35,-0.6,-0.0,0.2,0.0045,0.06,-3.6491605647639065e-07,0.005,0.0,0.005,-0.0,9.076095600000002,2.7442185453353876,WAITING_CAPTURE
0.009301500002038665,1,5,Approach,2337.989,175.95108,185.975113,-84.98652,55.937232971191406,37.18751907348633,64.03845,54.92804,1.08348083,0.6098175,-0.035663,-0.2585473746019909,0.868364874601991,0.27821257974261066,0.0,64.0,0.00167959672,0.08777707,0.010836107870967742,-0.5015832571428571,64.10836107870968,6.426224755096777,-900.0,-2.7359318827925696,0.6005599999998431,-0.81501348,7.1,2.0,26.9518318,27.96318,FLAPS_3,69277.0,175.9480092,140.0,113.6,183.0,12.904468550643474,13.6,12.036103676041483,15.0,0,0,0.0,150.0,-84.98652,-0.011404247,26.4809113,26.5443573,-3.57548,-0.292849064,-0.292790443,1.01070762,-1.01113462,0.403458029,154.0,29.1999989,1,0,0,0,60.0459976,60.1740646,,472.0,134.4,150.0,8.1,-10.0,-2.863952040838176e-05,0.0,0.024239318775892398,-0.026517481224109647,0.47598973116837495,26.512628026078485,0.47598973116837495,0.47598973116837495,-7,-0.35,-0.6,-0.0,0.2,0.0045,0.06,-4.065748064770967e-07,0.005,0.0,0.005,-0.0,9.07195999999999,2.741452625398009,WAITING_CAPTURE
0.009833000000071479,1,5,Approach,2338.29053,175.9514,185.975113,-85.88281,55.937232971191406,37.18769073486328,64.04262,54.932373,1.12886047,0.608322144,-0.0350197665,-0.26127404502744894,0.8695961890274488,0.2782127645716379,0.0,64.0,0.00167959672,0.08777707,0.010836107870967742,-0.5015832571428571,64.10836107870968,6.423191655096775,-900.0,-2.7359318827925696,0.5990599999998432,-0.8141171899999999,7.1,2.0,26.9518318,27.96318,FLAPS_3,69277.0,175.9477592,140.0,113.6,183.0,12.904468088570905,13.6,12.034871899543456,15.0,0,0,0.0,150.0,-85.88281,-0.01125941,26.4809113,26.5443573,-3.57548,-0.295223,-0.2951639,1.02483,-1.02455056,0.400726467,154.0,29.1999989,1,0,0,0,60.0459671,60.17411,,472.0,134.4,150.0,8.1,-10.0,0.00040878356743323475,0.0,0.023901892778903446,-0.026854907221098602,0.4759897047713941,26.51262655576665,0.4759897047713941,0.4759897047713941,-7,-0.35,-0.6,-0.0,0.2,0.0045,0.06,-4.4825445447780225e-07,0.005,0.0,0.005,-0.0,9.067627000000016,2.738725954972551,WAITING_CAPTURE
0.010226700000202982,1,5,Approach,2338.52441,175.95192,185.971,-86.99088,55.93740463256836,37.18769073486328,64.04935,54.9391937,1.19619751,0.6061096,-0.0339654572,-0.26465083839237585,0.8707604383923759,0.2782127645716379,0.0,64.0,0.00246127462,0.08899361,0.015879191096774194,-0.5085349142857143,64.15879191096774,6.453718747677422,-900.0,-2.7359922996827195,0.5975599999998432,-0.8130091199999999,7.1,2.0,26.9518318,27.96318,FLAPS_3,69277.0,175.9475092,140.0,113.6,183.0,12.904468088570905,13.6,12.03370765017853,15.0,0,0,0.0,150.0,-86.99088,-0.0110713588,26.4809113,26.5443573,-3.57548,-0.300750852,-0.300705343,0.8973015,-0.897689,0.396132976,154.0,29.1999989,1,0,0,0,60.0459023,60.1742,,472.0,134.4,150.0,8.1,-10.0,0.0012020803690486507,0.0,0.0233974304554105,-0.027359369544591543,0.4759896693459793,26.51262458257105,0.4759896693459793,0.4759896693459793,-7,-0.35,-0.6,-0.0,0.2,0.0045,0.06,-4.867276544785078e-07,0.005,0.0,0.005,-0.0,9.060806299999996,2.735349161607624,WAITING_CAPTURE
0.010932799999864073,1,5,Approach,2338.55884,175.95192,185.967743,-87.86436,55.93740463256836,37.187862396240234,64.05414,54.94397,1.240509,0.6046753,-0.0332793072,-0.26731285451863257,0.8719881545186325,0.2782127645716379,0.0,64.0,0.00246127462,0.08899361,0.015879191096774194,-0.5085349142857143,64.15879191096774,6.4503753376774196,-900.0,-2.7360401444655675,0.5960599999998433,-0.8121356399999999,7.1,2.0,26.9518318,27.96318,FLAPS_3,69277.0,175.94725920000002,140.0,113.6,183.0,12.904468088570905,13.6,12.032479934052272,15.0,0,0,0.0,150.0,-87.86436,-0.0109304488,26.4809113,26.5443573,-3.57548,-0.303147823,-0.303093463,0.8622751,-0.862856567,0.393427879,154.0,29.1999989,1,0,0,0,60.0458755,60.1742554,,472.0,134.4,150.0,8.1,-10.0,0.0016035915758387982,0.0,0.023327660476420306,-0.027429139523581746,0.4759896326972807,26.512622541238535,0.4759896326972807,0.4759896326972807,-7,-0.35,-0.6,-0.0,0.2,0.0045,0.06,-5.254965044792132e-07,0.005,0.0,0.005,-0.0,9.056029999999993,2.7326871454813673,WAITING_CAPTURE
0.011661000000458444,1,5,Approach,2339.11353,175.952423,185.967743,-89.36916,55.93740463256836,37.187862396240234,64.05788,54.9476624,1.273407,0.6035919,-0.0327499434,-0.2718908927076709,0.8754827927076709,0.2782129494006651,0.0,64.0,0.00246127462,0.08899361,0.015879191096774194,-0.5085349142857143,64.15879191096774,6.447790657677416,-900.0,-2.7360401444655675,0.5945599999998433,-0.8106308400000001,7.1,2.0,26.9518318,27.96318,FLAPS_3,69277.0,175.94700920000002,140.0,113.6,183.0,12.904467626498338,13.6,12.028984833790666,15.0,0,0,0.0,150.0,-89.36916,-0.0107900612,26.4809113,26.5443573,-3.57548,-0.307390571,-0.307338029,0.844303,-0.8443143,0.388873219,154.0,29.1999989,1,0,0,0,60.04583,60.1743622,,472.0,134.4,150.0,8.1,-10.0,0.001827845369969622,0.0,0.022837520515413483,-0.027919279484588565,0.4759895872852714,26.51262001178962,0.4759895872852714,0.4759895872852714,-7,-0.35,-0.6,-0.0,0.2,0.0045,0.06,-5.661400544799181e-07,0.005,0.0,0.005,-0.0,9.052337599999987,2.728109107292329,WAITING_CAPTURE
0.012358300002233591,1,5,Approach,2339.069,175.953033,185.963745,-90.00477,55.93740463256836,37.187862396240234,64.06177,54.9514771,1.30603027,0.602539063,-0.0322098136,-0.2738304885128734,0.8763695515128734,0.27821399020018733,0.0,64.0,0.003187359,0.09012194,0.0205636064516129,-0.5149825142857143,64.20563606451613,6.477911275161295,-900.0,-2.7360988766999434,0.5930599999998434,-0.80999523,7.1,2.0,26.9518318,27.96318,FLAPS_3,69277.0,175.94675920000003,140.0,113.6,183.0,12.904465024499531,13.6,12.028095472986658,15.0,0,0,0.0,150.0,-90.00477,-0.0106828678,26.4809113,26.5443573,-3.57548,-0.3114521,-0.31141746,0.7627599,-0.7631003,0.3842852,154.0,29.1999989,1,0,0,0,60.0458031,60.1744461,,472.0,134.4,150.0,8.1,-10.0,0.002035304302552264,0.0,0.02225813634979942,-0.02849866365020263,0.4759895315160074,26.512616905441615,0.4759895315160074,0.4759895315160074,-7,-0.35,-0.6,-0.0,0.2,0.0045,0.06,-6.087958379806231e-07,0.005,0.0,0.005,-0.0,9.048522899999995,2.7261695114871265,WAITING_CAPTURE
0.012827200000174344,1,5,Approach,2339.316,175.953674,185.9596,-91.46555,55.93740463256836,37.18803405761719,64.07132,54.9607239,1.38105774,0.600097656,-0.03093274,-0.2782808984548923,0.8783785544548923,0.2782141750292145,0.0,64.0,0.003187359,0.09012194,0.0205636064516129,-0.5149825142857143,64.20563606451613,6.471438515161296,-900.0,-2.7361597710839933,0.5915599999998434,-0.80853445,7.1,2.0,26.9518318,27.96318,FLAPS_3,69277.0,175.94650920000004,140.0,113.6,183.0,12.904464562426963,13.6,12.02608600797207,15.0,0,0,0.0,150.0,-91.46555,-0.01044112,26.4809113,26.5443573,-3.57548,-0.3165793,-0.316511571,0.6888304,-0.6897353,0.3783567,154.0,29.1999989,1,0,0,0,60.04574,60.17461,,472.0,134.4,150.0,8.1,-10.0,0.002934531812068625,0.0,0.021653061356935864,-0.029103738643066188,0.4759894649369009,26.51261319698538,0.4759894649369009,0.4759894649369009,-7,-0.35,-0.6,-0.0,0.2,0.0045,0.06,-6.472152899813275e-07,0.005,0.0,0.005,-0.0,9.039276099999995,2.7217191015451077,WAITING_CAPTURE
0.013261700001748977,1,5,Approach,2339.673,175.953674,185.9596,-92.08294,55.93740463256836,37.18803405761719,64.07562,54.9648438,1.41268921,0.5990753,-0.0303901937,-0.2801592571874122,0.8792345571874122,0.2782141750292145,0.0,64.0,0.003187359,0.09012194,0.0205636064516129,-0.5149825142857143,64.20563606451613,6.468554585161291,-900.0,-2.7361597710839933,0.5900599999998435,-0.80791706,7.1,2.0,26.9518318,27.96318,FLAPS_3,69277.0,175.94625920000004,140.0,113.6,183.0,12.904464562426963,13.6,12.02523000523955,15.0,0,0,0.0,150.0,-92.08294,-0.0103365937,26.4809113,26.5443573,-3.57548,-0.3192016,-0.3191483,0.62030077,-0.62167877,0.3758012,154.0,29.1999989,1,0,0,0,60.0457077,60.1746941,,472.0,134.4,150.0,8.1,-10.0,0.003121748138706347,0.0,0.021583839325136994,-0.029172960674865054,0.47598939716924316,26.512609422326847,0.47598939716924316,0.47598939716924316,-7,-0.35,-0.6,-0.0,0.2,0.0045,0.06,-6.877841399820317e-07,0.005,0.0,0.005,-0.0,9.035156200000017,2.719840742812588,WAITING_CAPTURE
0.013743499999691267,1,5,Approach,2339.738,175.95459,185.9559,-92.694,55.93740463256836,37.18803405761719,64.08615,54.974823,1.48518372,0.596725464,-0.0291053746,-0.28202396810050084,0.8787494321005009,0.27821523855361713,0.0,64.0,0.003911759,0.09124947,0.025237154838709676,-0.5214255428571429,64.2523715483871,6.494283983870972,-900.0,-2.7362141302406977,0.5885599999998435,-0.8073060000000001,7.1,2.0,26.9518318,27.96318,FLAPS_3,69277.0,175.94600920000005,140.0,113.6,183.0,12.904461903615957,13.6,12.025712471515456,15.0,0,0,0.0,150.0,-92.694,-0.0100969533,26.4809113,26.5443573,-3.57548,-0.322292954,-0.3222252,0.567602158,-0.5688389,0.372212857,154.0,29.1999989,1,0,0,0,60.0456619,60.17482,,472.0,134.4,150.0,8.1,-10.0,0.003970303937343666,0.0,0.02074913751300671,-0.030007662486995334,0.4759893144820653,26.512604816651038,0.4759893144820653,0.4759893144820653,-7,-0.35,-0.6,-0.0,0.2,0.0045,0.06,-7.245287279827359e-07,0.005,0.0,0.005,-0.0,9.025176999999985,2.717976031899499,WAITING_CAPTURE
0.014167699999234173,1,5,Approach,2339.81958,175.95459,185.951416,-93.49898,55.93740463256836,37.18820571899414,64.09085,54.9792633,1.51567078,0.5957489,-0.0285677277,-0.28447996077307525,0.8802288607730753,0.27821523855361713,0.0,64.0,0.003911759,0.09124947,0.025237154838709676,-0.5214255428571429,64.2523715483871,6.491175773870972,-900.0,-2.7362800105547143,0.5870599999998436,-0.80650102,7.1,2.0,26.9518318,27.96318,FLAPS_3,69277.0,175.94575920000005,140.0,113.6,183.0,12.904461903615957,13.6,12.024233042842882,15.0,0,0,0.0,150.0,-93.49898,-0.0100304531,26.4809113,26.5443573,-3.57548,-0.326755,-0.3266836,0.497805238,-0.499439746,0.367589951,154.0,29.1999989,1,0,0,0,60.0456123,60.1749344,,472.0,134.4,150.0,8.1,-10.0,0.004129864962052906,0.0,0.020680203231418167,-0.03007659676858388,0.47598923062437426,26.512600145777647,0.47598923062437426,0.47598923062437426,-7,-0.35,-0.6,-0.0,0.2,0.0045,0.06,-7.636287779834398e-07,0.005,0.0,0.005,-0.0,9.020736699999986,2.7155200392269245,WAITING_CAPTURE
0.014894600000843639,1,5,Approach,2340.07251,175.955643,185.951416,-94.8863144,55.93740463256836,37.18820571899414,64.09732,54.98532,1.55574036,0.594436646,-0.0278352071,-0.28870099296302254,0.8831376389630226,0.2782164687271426,0.0,64.0,0.003911759,0.09124947,0.025237154838709676,-0.5214255428571429,64.2523715483871,6.486936083870961,-900.0,-2.7362800105547143,0.5855599999998437,-0.8051136856000001,7.1,2.0,26.9518318,27.96318,FLAPS_3,69277.0,175.94550920000006,140.0,113.6,183.0,12.904458828182143,13.6,12.02132118921912,15.0,0,0,0.0,150.0,-94.8863144,-0.009858097,26.4809113,26.5443573,-3.57548,-0.3296506,-0.3295846,0.44317022,-0.444165766,0.363991022,154.0,29.1999989,1,0,0,0,60.04558,60.1750221,,472.0,134.4,150.0,8.1,-10.0,0.0044557006549623066,0.0,0.0197313092125767,-0.031025490787425346,0.47598912981153424,26.512594530502458,0.47598912981153424,0.47598912981153424,-7,-0.35,-0.6,-0.0,0.2,0.0045,0.06,-8.035736849841435e-07,0.005,0.0,0.005,-0.0,9.014679999999998,2.7112990070369776,WAITING_CAPTURE
0.015538899999228306,1,5,Approach,2340.20435,175.956772,185.946747,-95.47384,55.93740463256836,37.188377380371094,64.10739,54.99472,1.61454773,0.5925293,-0.026729783,-0.2904958610018418,0.8830251610018418,0.2782175292215612,0.0,64.0,0.004691752,0.09246258,0.030269367741935487,-0.5283576000000001,64.30269367741936,6.515581574193538,-900.0,-2.7363486123148912,0.5840599999998437,-0.80452616,7.1,2.0,26.9518318,27.96318,FLAPS_3,69277.0,175.94525920000007,140.0,113.6,183.0,12.904456176946097,13.6,12.021431015944255,15.0,0,0,0.0,150.0,-95.47384,-0.009655338,26.4809113,26.5443573,-3.57548,-0.3337575,-0.333687067,0.396530867,-0.3974208,0.358878,154.0,29.1999989,1,0,0,0,60.04553,60.175148,,472.0,134.4,150.0,8.1,-10.0,0.005076826015924284,0.0,0.018719316011387294,-0.03203748398861476,0.47598901092516416,26.512587908531646,0.47598901092516416,0.47598901092516416,-7,-0.35,-0.6,-0.0,0.2,0.0045,0.06,-8.41685534984847e-07,0.005,0.0,0.005,-0.0,9.005279999999999,2.7095041389981582,WAITING_CAPTURE
0.016099799999210518,1,5,Approach,2340.21118,175.956772,185.942673,-96.05314,55.93740463256836,37.188377380371094,64.11435,55.00119,1.65287781,0.5912781,-0.0259865057,-0.29226485538169145,0.8835429553816915,0.2782175292215612,0.0,64.0,0.004691752,0.09246258,0.030269367741935487,-0.5283576000000001,64.30269367741936,6.5110525741935525,-900.0,-2.736408474529987,0.5825599999998438,-0.80394686,7.1,2.0,26.9518318,27.96318,FLAPS_3,69277.0,175.94500920000007,140.0,113.6,183.0,12.904456176946097,13.6,12.020913221564404,15.0,0,0,0.0,150.0,-96.05314,-0.009518357,26.4809113,26.5443573,-3.57548,-0.3361855,-0.336123168,0.3751147,-0.3756624,0.356004059,154.0,29.1999989,1,0,0,0,60.04549,60.1752357,,472.0,134.4,150.0,8.1,-10.0,0.0053676768112127385,0.0,0.018651167679593954,-0.03210563232040809,0.47598889091131624,26.512581223760318,0.47598889091131624,0.47598889091131624,-7,-0.35,-0.6,-0.0,0.2,0.0045,0.06,-8.809169849855503e-07,0.005,0.0,0.005,-0.0,8.998809999999992,2.7077351446183084,WAITING_CAPTURE
0.01652210000247578,1,5,Approach,2340.38452,175.957489,185.937714,-97.38649,55.93757629394531,37.188377380371094,64.12515,55.01117,1.70904541,0.589431763,-0.0248497427,-0.29632972546418296,0.8857614884641829,0.2782188215097598,0.0,64.0,0.004691752,0.09246258,0.030269367741935487,-0.5283576000000001,64.30269367741936,6.504066574193544,-900.0,-2.7364813442190714,0.5810599999998438,-0.80261351,7.1,2.0,26.9518318,27.96318,FLAPS_3,69277.0,175.94475920000008,140.0,113.6,183.0,12.9044529462256,13.6,12.018691457761417,15.0,0,0,0.0,150.0,-97.38649,-0.00931542,26.4809113,26.5443573,-3.57548,-0.3411446,-0.3410715,0.299745053,-0.3004373,0.3503045,154.0,29.1999989,1,0,0,0,60.0454178,60.1754074,,472.0,134.4,150.0,8.1,-10.0,0.0059539530561636125,0.0,0.017983822140511745,-0.03277297785949031,0.47598875902191096,26.512573877520442,0.47598875902191096,0.47598875902191096,-7,-0.35,-0.6,-0.0,0.2,0.0045,0.06,-9.185899184862531e-07,0.005,0.0,0.005,-0.0,8.988830000000007,2.703670274535817,WAITING_CAPTURE
0.01693110000269371,1,5,Approach,2340.50269,175.958832,185.937714,-97.9493256,55.93757629394531,37.18854904174805,64.12515,55.01117,1.70904541,0.589431763,-0.0248497427,-0.2980423030384354,0.8874740660384354,0.27822090159381213,0.0,64.0,0.00541530969,0.09358795,0.03493748187096774,-0.5347882857142857,64.34937481870968,6.536743373096769,-900.0,-2.7364813442190714,0.5795599999998439,-0.8020506744000001,7.1,2.0,26.9518318,27.96318,FLAPS_3,69277.0,175.94450920000008,140.0,113.6,183.0,12.90444774601547,13.6,12.016973679977033,15.0,0,0,0.0,150.0,-97.9493256,-0.00931542,26.4809113,26.5443573,-3.57548,-0.343721271,-0.343670577,0.244042218,-0.245323226,0.3472607,154.0,29.1999989,1,0,0,0,60.0454,60.17545,,472.0,134.4,150.0,8.1,-10.0,0.005615857718558939,0.0,0.01679363889775237,-0.03396316110224968,0.4759886058872711,26.512565347921,0.4759886058872711,0.4759886058872711,-7,-0.35,-0.6,-0.0,0.2,0.0045,0.06,-9.630128519869557e-07,0.005,0.0,0.005,-0.0,8.988830000000007,2.7019576969615646,WAITING_CAPTURE
0.017367600001307437,1,5,Approach,2340.53662,175.960083,185.932648,-99.2432,55.93757629394531,37.18854904174805,64.13826,55.02324,1.7724762,0.587356567,-0.0235004928,-0.3019874870070375,0.8893440540070375,0.27822217418711437,0.0,64.0,0.00541530969,0.09358795,0.03493748187096774,-0.5347882857142857,64.34937481870968,6.528294373096773,-900.0,-2.7365557902169644,0.5780599999998439,-0.8007568,7.1,2.0,26.9518318,27.96318,FLAPS_3,69277.0,175.9442592000001,140.0,113.6,183.0,12.904444564532213,13.6,12.015100510525174,15.0,0,0,0.0,150.0,-99.2432,-0.009079734,26.4809113,26.5443573,-3.57548,-0.348352253,-0.348304063,0.181140482,-0.181634173,0.3410515,154.0,29.1999989,1,0,0,0,60.04532,60.1756172,,472.0,134.4,150.0,8.1,-10.0,0.0063139989428206466,0.0,0.01568086433136525,-0.0350759356686368,0.4759884329130113,26.51255571325473,0.4759884329130113,0.4759884329130113,-7,-0.35,-0.6,-0.0,0.2,0.0045,0.06,-1.0048474034876583e-06,0.005,0.0,0.005,-0.0,8.976760000000013,2.6980125129929626,WAITING_CAPTURE
0.017771500002709217,1,5,Approach,2340.53662,175.960083,185.932648,-99.2432,55.93757629394531,37.18854904174805,64.14404,55.02855,1.7989502,0.586471558,-0.02291938,-0.3019874870070375,0.8884590450070374,0.27822217418711437,0.0,64.0,0.00541530969,0.09358795,0.03493748187096774,-0.5347882857142857,64.34937481870968,6.524577373096767,-900.0,-2.7365557902169644,0.576559999999844,-0.8007568,7.1,2.0,26.9518318,27.96318,FLAPS_3,69277.0,175.9440092000001,140.0,113.6,183.0,12.904444564532213,13.6,12.015985519525175,15.0,0,0,0.0,150.0,-99.2432,-0.008980436,26.4809113,26.5443573,-3.57548,-0.34937945,-0.349315315,0.175470233,-0.175886065,0.340062469,154.0,29.1999989,1,0,0,0,60.0453,60.17566,,472.0,134.4,150.0,8.1,-10.0,0.0064150266118675,0.0,0.015613929281806814,-0.03514287071819523,0.4759882588762744,26.512546019408486,0.4759882588762744,0.4759882588762744,-7,-0.35,-0.6,-0.0,0.2,0.0045,0.06,-1.0494494144883602e-06,0.005,0.0,0.005,-0.0,8.971450000000004,2.6980125129929626,WAITING_CAPTURE
0.018261699999129632,1,5,Approach,2340.669,175.961838,185.928146,-100.331665,55.93757629394531,37.18854904174805,64.15192,55.0357666,1.83358765,0.585327148,-0.0221651159,-0.30530691095991724,0.8906340589599172,0.27822425427116676,0.0,64.0,0.00541530969,0.09358795,0.03493748187096774,-0.5347882857142857,64.34937481870968,6.519525753096772,-900.0,-2.736621951506062,0.575059999999844,-0.799668335,7.1,2.0,26.9518318,27.96318,FLAPS_3,69277.0,175.9437592000001,140.0,113.6,183.0,12.904439364322084,13.6,12.013805305362167,15.0,0,0,0.0,150.0,-100.331665,-0.00888778549,26.4809113,26.5443573,-3.57548,-0.3542102,-0.354160815,0.078788735,-0.0801221356,0.334477782,154.0,29.1999989,1,0,0,0,60.0452461,60.1757736,,472.0,134.4,150.0,8.1,-10.0,0.006644441397718928,0.0,0.014080428125534485,-0.03667637187446757,0.47598805746922407,26.51253480103578,0.47598805746922407,0.47598805746922407,-7,-0.35,-0.6,-0.0,0.2,0.0045,0.06,-1.0956515804890618e-06,0.005,0.0,0.005,-0.0,8.964233400000012,2.694693089040083,WAITING_CAPTURE
0.01874139999927138,1,5,Approach,2340.697,175.962463,185.92276,-101.574051,55.93757629394531,37.188720703125,64.16403,55.04686,1.88406372,0.5836334,-0.0209836531,-0.3090963433993712,0.8927297433993712,0.27822557231422984,0.0,64.0,0.00613718247,0.09471313,0.039594725612903225,-0.5412178857142858,64.39594725612903,6.544361079290317,-900.0,-2.7367011082389556,0.5735599999998441,-0.798425949,7.1,2.0,26.9518318,27.96318,FLAPS_3,69277.0,175.9435092000001,140.0,113.6,183.0,12.904436069214425,13.6,12.011706325815053,15.0,0,0,0.0,150.0,-101.574051,-0.00864729,26.4809113,26.5443573,-3.57548,-0.3593217,-0.3592575,0.044823423,-0.04532944,0.327905178,154.0,29.1999989,1,0,0,0,60.04517,60.1759262,,472.0,134.4,150.0,8.1,-10.0,0.0071466155937944,0.0,0.01349188002749998,-0.03726491997250207,0.4759878456652238,26.512523003552968,0.4759878456652238,0.4759878456652238,-7,-0.35,-0.6,-0.0,0.2,0.0045,0.06,-1.1409818804897634e-06,0.005,0.0,0.005,-0.0,8.95313999999999,2.6909036566006286,WAITING_CAPTURE
0.019311700001708232,1,5,Approach,2340.68213,175.962463,185.92276,-102.098816,55.93757629394531,37.18889236450195,64.1723,55.0544128,1.91673279,0.582550049,-0.0201539863,-0.31069320568398145,0.8932432546839815,0.27822557231422984,0.0,64.0,0.00613718247,0.09471313,0.039594725612903225,-0.5412178857142858,64.39594725612903,6.539074119290327,-900.0,-2.7367011082389556,0.5720599999998441,-0.7979011840000001,7.1,2.0,26.9518318,27.96318,FLAPS_3,69277.0,175.9432592000001,140.0,113.6,183.0,12.904436069214425,13.6,12.011192814530443,15.0,0,0,0.0,150.0,-102.098816,-0.008537684,26.4809113,26.5443573,-3.57548,-0.362891048,-0.362829864,0.007518705,-0.007860237,0.3230654,154.0,29.1999989,1,0,0,0,60.04513,60.176,,472.0,134.4,150.0,8.1,-10.0,0.00734173488475456,0.0,0.01342579643100432,-0.037331003568997725,0.4759876328450596,26.512511149469823,0.4759876328450596,0.4759876328450596,-7,-0.35,-0.6,-0.0,0.2,0.0045,0.06,-1.1881871009904645e-06,0.005,0.0,0.005,-0.0,8.945587200000006,2.6893067943160185,WAITING_CAPTURE
0.019867700000759214,1,5,Approach,2340.66162,175.964218,185.917252,-102.791161,55.93757629394531,37.18889236450195,64.1786041,55.06018,1.9407196,0.581741333,-0.0195299126,-0.3128092807879321,0.894550613787932,0.27822767966813866,0.0,64.0,0.00691380631,0.09592386,0.044605202000000004,-0.5481363428571429,64.44605202,6.570110413999995,-900.0,-2.736782062708712,0.5705599999998442,-0.7972088390000001,7.1,2.0,26.9518318,27.96318,FLAPS_3,69277.0,175.94300920000012,140.0,113.6,183.0,12.904430800829653,13.6,12.009880187041722,15.0,0,0,0.0,150.0,-102.791161,-0.008437558,26.4809113,26.5443573,-3.57548,-0.36518386,-0.3651247,0.0011243074,-0.00121584325,0.320105553,154.0,29.1999989,1,0,0,0,60.0450935,60.1760674,,472.0,134.4,150.0,8.1,-10.0,0.007398350192249681,0.0,0.011893143633282567,-0.038863656366719485,0.47598739270080265,26.51249777343471,0.47598739270080265,0.47598739270080265,-7,-0.35,-0.6,-0.0,0.2,0.0045,0.06,-1.2385030994911656e-06,0.005,0.0,0.005,-0.0,8.939819999999997,2.687190719212068,WAITING_CAPTURE
0.020409600001585204,1,5,Approach,2340.61,175.964218,185.912415,-103.304863,55.93757629394531,37.18889236450195,64.19362,55.0739136,1.99504089,0.5799103,-0.0180363115,-0.3143807025903189,0.8942910025903189,0.27822767966813866,0.0,64.0,0.00691380631,0.09592386,0.044605202000000004,-0.5481363428571429,64.44605202,6.560496893999999,-900.0,-2.7368531590249088,0.5690599999998442,-0.796695137,7.1,2.0,26.9518318,27.96318,FLAPS_3,69277.0,175.94275920000013,140.0,113.6,183.0,12.904430800829653,13.6,12.010139798239335,15.0,0,0,0.0,150.0,-103.304863,-0.008184711,26.4809113,26.5443573,-3.57548,-0.368770778,-0.368727237,-0.05285115,0.0520371273,0.315382659,154.0,29.1999989,1,0,0,0,60.04504,60.17616,,472.0,134.4,150.0,8.1,-10.0,0.00796438784830079,0.0,0.011827697884076595,-0.03892910211592546,0.47598715157447813,26.512484342698432,0.47598715157447813,0.47598715157447813,-7,-0.35,-0.6,-0.0,0.2,0.0045,0.06,-1.2873294494918665e-06,0.005,0.0,0.005,-0.0,8.926086400000003,2.685619297409681,WAITING_CAPTURE
0.020854500002315035,1,5,Approach,2340.71533,175.965759,185.912415,-104.490059,55.93757629394531,37.18889236450195,64.2001953,55.0799255,2.017624,0.579147339,-0.017340472,-0.3179874557731385,0.8971347947731385,0.2782289234765924,0.0,64.0,0.00691380631,0.09592386,0.044605202000000004,-0.5481363428571429,64.44605202,6.5562885639999955,-900.0,-2.7368531590249088,0.5675599999998443,-0.795509941,7.1,2.0,26.9518318,27.96318,FLAPS_3,69277.0,175.94250920000013,140.0,113.6,183.0,12.90442769130852,13.6,12.00729289653538,15.0,0,0,0.0,150.0,-104.490059,-0.008096064,26.4809113,26.5443573,-3.57548,-0.3715882,-0.37154597,-0.08539814,0.08484357,0.311343253,154.0,29.1999989,1,0,0,0,60.04498,60.1762466,,472.0,134.4,150.0,8.1,-10.0,0.007994692746938944,0.0,0.010474501479112793,-0.04028229852088925,0.47598688636595055,26.51246957058345,0.47598688636595055,0.47598688636595055,-7,-0.35,-0.6,-0.0,0.2,0.0045,0.06,-1.3394724749925671e-06,0.005,0.0,0.005,-0.0,8.920074499999998,2.6820125442268616,WAITING_CAPTURE
0.021565999999438645,1,5,Approach,2340.776,175.967636,185.906631,-104.991745,55.93757629394531,37.189064025878906,64.20683,55.086,2.039795,0.578399658,-0.0166171025,-0.3195241115592372,0.8979237695592373,0.27823207314501547,0.0,64.0,0.00763399433,0.09704757,0.04925157632258065,-0.5545575428571429,64.49251576322581,6.5845610342580585,-900.0,-2.7369381796022756,0.5660599999998444,-0.7950082549999999,7.1,2.0,26.9518318,27.96318,FLAPS_3,69277.0,175.94225920000014,140.0,113.6,183.0,12.90441981713746,13.6,12.006496047578224,15.0,0,0,0.0,150.0,-104.991745,-0.008006633,26.4809113,26.5443573,-3.57548,-0.374437422,-0.374396175,-0.119101055,0.118205823,0.307534784,154.0,29.1999989,1,0,0,0,60.0449448,60.1763077,,472.0,134.4,150.0,8.1,-10.0,0.008016479095218866,0.0,0.008841151398854347,-0.0419156486011477,0.4759865920688018,26.51245317823226,0.4759865920688018,0.4759865920688018,-7,-0.35,-0.6,-0.0,0.2,0.0045,0.06,-1.395000935993268e-06,0.005,0.0,0.005,-0.0,8.913999999999987,2.6804758884407627,WAITING_CAPTURE
0.022226600001886254,1,5,Approach,2340.76685,175.967636,185.900742,-105.489746,55.93757629394531,37.189064025878906,64.22261,55.1004333,2.08990479,0.57673645,-0.0147985518,-0.3210498290678409,0.8977862790678408,0.27823207314501547,0.0,64.0,0.00763399433,0.09704757,0.04925157632258065,-0.5545575428571429,64.49251576322581,6.574457724258073,-900.0,-2.7370247490260824,0.5645599999998444,-0.7945102540000001,7.1,2.0,26.9518318,27.96318,FLAPS_3,69277.0,175.94200920000014,140.0,113.6,183.0,12.90441981713746,13.6,12.00663353806962,15.0,0,0,0.0,150.0,-105.489746,-0.007824124,26.4809113,26.5443573,-3.57548,-0.37748915,-0.37744084,-0.161530063,0.161095709,0.302915931,154.0,29.1999989,1,0,0,0,60.0449,60.1763878,,472.0,134.4,150.0,8.1,-10.0,0.008494484797516534,0.0,0.008777002910231983,-0.041979797089770066,0.4759862968561447,26.51243673488726,0.4759862968561447,0.4759862968561447,-7,-0.35,-0.6,-0.0,0.2,0.0045,0.06,-1.4497949609939678e-06,0.005,0.0,0.005,-0.0,8.899566700000008,2.678950170932159,WAITING_CAPTURE
0.04179560000193305,1,5,Approach,2358.6814,176.011581,185.778763,-121.444832,55.93809127807617,37.19095230102539,64.54907,55.4117126,2.65263367,0.5509186,-0.10687913,-0.3698493028513073,0.9207679028513074,0.2782902988335696,0.0,64.0,0.014206659,0.107419841,0.09165586451612903,-0.6138276628571429,64.91655864516129,6.653392231612901,-900.0,-2.738819094953653,0.5352064999997742,-0.778555168,7.1,2.0,26.9518318,27.96318,FLAPS_3,69277.0,175.93711695000013,140.0,113.6,183.0,12.904274252916075,13.6,11.983506350064767,15.0,0,0,0.0,150.0,-121.444832,-0.0112252608,26.4809113,26.5443573,-3.57548,0.409669161,0.408927321,-1.096549,1.09674513,-0.05138945,154.0,29.1999989,1,0,0,0,60.04371,60.17529,,472.0,134.4,150.0,8.1,-10.0,0.014145560603979068,0.0,-0.029312090416048778,-0.08006889041605082,0.4759674333656068,26.511386038464302,0.4759674333656068,0.4759674333656068,-7,-0.35,-0.6,-0.0,0.2,0.0045,0.06,-2.8334103430671627e-06,0.005,0.0,0.005,-0.0,8.588287400000013,2.6301506971486925,WAITING_CAPTURE
0.08769600000232458,1,5,Approach,2358.6814,176.011581,185.778763,-121.444832,55.93809127807617,37.19095230102539,64.55615,55.42003,2.65899658,0.547073364,-0.128079772,-0.3698493028513073,0.9169226668513073,0.2782902988335696,0.0,64.0,0.01491,0.108540006,0.09619354838709678,-0.6202286057142857,64.96193548387097,6.679333838709684,-900.0,-2.738819094953653,0.4663558999991869,-0.778555168,7.1,2.0,26.9518318,27.96318,FLAPS_3,69277.0,175.92564185000003,140.0,113.6,183.0,12.904274252916075,13.6,11.987351586064767,15.0,0,0,0.0,150.0,-121.444832,-0.0113015352,26.4809113,26.5443573,-3.57548,0.438409925,0.437972546,0.101845726,-0.07768913,-0.04512229,154.0,29.1999989,1,0,0,0,60.04365,60.17516,,472.0,134.4,150.0,8.1,-10.0,-0.0013872537945904921,0.0,-0.03160023373497134,-0.08235703373497338,0.475922936158981,26.508907544055244,0.475922936158981,0.475922936158981,-7,-0.35,-0.6,-0.0,0.2,0.0045,0.06,-1.950574782401251e-05,0.005,0.0,0.005,-0.0,8.579970000000003,2.6301506971486925,WAITING_CAPTURE
0.1337201999995159,1,5,Approach,2359.82544,176.013565,185.771149,-121.800385,55.93809127807617,37.19095230102539,64.5719,55.4395447,2.67581177,0.5356293,-0.176647842,-0.37094727985811876,0.9065765798581187,0.2782937666503182,0.0,64.0,0.01491,0.108540006,0.09619354838709678,-0.6202286057142857,64.96193548387097,6.665673548709682,-900.0,-2.7389311770233618,0.39731960000339994,-0.778199615,7.1,2.0,26.9518318,27.96318,FLAPS_3,69277.0,175.91413580000074,140.0,113.6,183.0,12.904265583374205,13.6,11.997689003516086,15.0,0,0,0.0,150.0,-121.800385,-0.011685065,26.4809113,26.5443573,-3.57548,0.433560222,0.433736384,1.72348249,-1.68025827,-0.0297395065,154.0,29.1999989,1,0,0,0,60.04346,60.174675,,472.0,134.4,150.0,8.1,-10.0,-0.012904858947201676,0.0,-0.035837244517488175,-0.08659404451749023,0.4758765267149978,26.50632253802538,0.4758765267149978,0.4758765267149978,-7,-0.35,-0.6,-0.0,0.2,0.0045,0.06,-4.8150917647890236e-05,0.005,0.0,0.005,-0.0,8.560455300000001,2.6290527201418814,WAITING_CAPTURE
0.17911029999959283,1,5,Approach,2360.31372,176.013565,185.763489,-122.0228,55.93809127807617,37.191123962402344,64.57617,55.44516,2.68170166,0.5317688,-0.189227074,-0.37163995704033875,0.9034087570403389,0.2782937666503182,0.0,64.0,0.01491,0.108540006,0.09619354838709678,-0.6202286057142857,64.96193548387097,6.661742838709671,-900.0,-2.739043945487385,0.32923445000328455,-0.7779772,7.1,2.0,26.9518318,27.96318,FLAPS_3,69277.0,175.90278827500072,140.0,113.6,183.0,12.904265583374205,13.6,12.000856826333866,15.0,0,0,0.0,150.0,-122.0228,-0.0116781592,26.4809113,26.5443573,-3.57548,0.406938285,0.407444775,2.8109386,-2.75331974,-0.0246743821,154.0,29.1999989,1,0,0,0,60.04338,60.174408,,472.0,134.4,150.0,8.1,-10.0,-0.027761077308500533,0.0,-0.03859094472069398,-0.08934774472069604,0.4758301950781284,26.503741865851755,0.4758301950781284,0.4758301950781284,-7,-0.35,-0.6,-0.0,0.2,0.0045,0.06,-8.951966244699696e-05,0.005,0.0,0.005,-0.0,8.554840000000013,2.6283600429596614,WAITING_CAPTURE
0.22541389999969397,1,5,Approach,2361.16,176.015823,185.763489,-122.768028,55.93809127807617,37.191123962402344,64.58641,55.45929,2.69998169,0.5210571,-0.218420267,-0.3739096038807233,0.8949667038807234,0.27829589369912344,0.0,64.0,0.0156664085,0.10974022,0.10107360322580645,-0.6270869714285715,65.01073603225807,6.686012222580649,-900.0,-2.739043945487385,0.25977905000313284,-0.777231972,7.1,2.0,26.9518318,27.96318,FLAPS_3,69277.0,175.8912123750007,140.0,113.6,183.0,12.90426026575219,13.6,12.009293561871468,15.0,0,0,0.0,150.0,-122.768028,-0.011962017,26.47775,26.5361214,-3.57548,0.377537042,0.378136873,3.89730763,-3.82462335,-0.0240178648,154.0,29.1999989,1,0,0,0,60.0432739,60.17395,,472.0,134.4,150.0,8.1,-10.0,-0.039348315721620855,0.0,-0.04102395197959198,-0.08772107197959089,0.47578064162802014,26.50098173868072,0.47578064162802014,0.47578064162802014,-7,-0.35,-0.6,-0.0,0.2,0.0045,0.06,-0.0001439611768683731,0.005,0.0,0.005,-0.0,8.54070999999999,2.6260903961192765,WAITING_CAPTURE
0.2565658000021358,1,5,Approach,2362.19336,176.018829,185.755814,-123.164894,55.938262939453125,37.191123962402344,64.59775,55.47644,2.730667,0.5063782,-0.255525947,-0.37513378665319863,0.8815119866531986,0.2783003083858886,0.0,64.0,0.0156664085,0.10974022,0.10107360322580645,-0.6270869714285715,65.01073603225807,6.674007222580638,-900.0,-2.7391569440838683,0.2130511999994701,-0.776835106,7.1,2.0,26.9518318,27.96318,FLAPS_3,69277.0,175.88342440000008,140.0,113.6,183.0,12.904249229035278,13.6,12.02273724238208,15.0,0,0,0.0,150.0,-123.164894,-0.0144616077,26.47775,26.5361214,-3.57548,0.6107885,0.60940516,5.254893,-5.163083,-0.0211326964,154.0,29.1999989,1,0,0,0,60.0431671,60.1734238,,472.0,134.4,150.0,8.1,-10.0,-0.04360382625701748,0.0,-0.04571241546687585,-0.09240953546687475,0.47574555554475595,26.49902744384291,0.47574555554475595,0.47574555554475595,-7,-0.35,-0.6,-0.0,0.2,0.0045,0.06,-0.00018508079704252056,0.005,0.0,0.005,-0.0,8.523560000000003,2.6248662133468015,WAITING_CAPTURE
0.30333299999983865,1,5,Approach,2362.67358,176.018829,185.749084,-123.735062,55.938262939453125,37.1912956237793,64.603,55.4851074,2.75065613,0.498138428,-0.2763458,-0.3768840000701264,0.8750224280701264,0.2783003083858886,0.0,64.0,0.0156664085,0.10974022,0.10107360322580645,-0.6270869714285715,65.01073603225807,6.667940042580653,-900.0,-2.7392560371647208,0.14290040000291582,-0.7762649380000001,7.1,2.0,26.9518318,27.96318,FLAPS_3,69277.0,175.87173260000066,140.0,113.6,183.0,12.904249229035278,13.6,12.029226800965152,15.0,0,0,0.0,150.0,-123.735062,-0.015348631,26.47775,26.5361214,-3.57548,0.7939258,0.788773358,6.612295,-6.500356,-0.0171961784,154.0,29.1999989,1,0,0,0,60.0430832,60.17302,,472.0,134.4,150.0,8.1,-10.0,-0.05703566005909502,0.0,-0.04911944235834398,-0.09581656235834288,0.47569202427607554,26.49604575217741,0.47569202427607554,0.47569202427607554,-7,-0.35,-0.6,-0.0,0.2,0.0045,0.06,-0.000259841492602102,0.005,0.0,0.005,-0.0,8.514892599999996,2.6231159999298734,WAITING_CAPTURE
0.34727009999915026,1,5,Approach,2363.52173,176.021637,185.749084,-124.232651,55.938262939453125,37.1912956237793,64.6095,55.4967651,2.78279114,0.486175537,-0.306869715,-0.37839955990862945,0.8645750969086294,0.2783045397586186,0.0,64.0,0.0163672231,0.110849075,0.1055949877419355,-0.6334232857142857,65.05594987741935,6.691429344193542,-900.0,-2.7392560371647208,0.0769947500039484,-0.775767349,7.1,2.0,26.9518318,27.96318,FLAPS_3,69277.0,175.86074832500083,140.0,113.6,183.0,12.904238650603453,13.6,12.039663553694824,15.0,0,0,0.0,150.0,-124.232651,-0.01756706,26.4738941,26.5271873,-3.57548,0.899332047,0.896799743,7.36821747,-7.27143,-0.0114988964,154.0,29.1999989,1,0,0,0,60.04299,60.1725578,,472.0,134.4,150.0,8.1,-10.0,-0.06749791536517696,0.0,-0.051817279833733285,-0.09445183983373517,0.47563903365691795,26.49309417469033,0.47563903365691795,0.47563903365691795,-7,-0.35,-0.6,-0.0,0.2,0.0045,0.06,-0.0003407434698042934,0.005,0.0,0.005,-0.0,8.503234899999995,2.6216004400913704,WAITING_CAPTURE
0.39389800000208197,1,5,Approach,2364.4873,176.024,185.741013,-125.564034,55.938262939453125,37.1912956237793,64.614,55.5056,2.81150818,0.476364136,-0.33178106,-0.3824713106704728,0.8588354466704728,0.2783079606106144,0.0,64.0,0.0163672231,0.110849075,0.1055949877419355,-0.6334232857142857,65.05594987741935,6.685244914193555,-900.0,-2.739374884689456,0.007052899999550832,-0.774435966,7.1,2.0,26.9518318,27.96318,FLAPS_3,69277.0,175.8490913500001,140.0,113.6,183.0,12.904230098473464,13.6,12.045394651802992,15.0,0,0,0.0,150.0,-125.564034,-0.0188804045,26.4738941,26.5271873,-3.57548,0.9896802,0.9873065,7.79693937,-7.753837,0.000126338084,154.0,29.1999989,1,0,0,0,60.0428162,60.17173,,472.0,134.4,150.0,8.1,-10.0,-0.08004958873434273,0.0,-0.05761082415832821,-0.1002453841583301,0.4755801445566555,26.489814051805713,0.4755801445566555,0.4755801445566555,-7,-0.35,-0.6,-0.0,0.2,0.0045,0.06,-0.0004392169580254589,0.005,0.0,0.005,-0.0,8.494399999999985,2.6175286893295273,WAITING_CAPTURE
0.43916100000205915,1,5,Approach,2364.832,176.024,185.733887,-126.213158,55.938262939453125,37.19146728515625,64.6232147,55.52652,2.89483643,0.450515747,-0.396747082,-0.38446324963459727,0.8349789966345973,0.2783079606106144,0.0,64.0,0.0163672231,0.110849075,0.1055949877419355,-0.6334232857142857,65.05594987741935,6.6706009141935425,-900.0,-2.7394798254152777,-0.06084160000041494,-0.773786842,7.1,2.0,26.9518318,27.96318,FLAPS_3,69277.0,175.8377756000001,140.0,113.6,183.0,12.904230098473464,13.6,12.069251101838868,15.0,0,0,0.0,150.0,-126.213158,-0.02302185,26.4693222,26.5179462,-3.57548,1.27908778,1.2735877,7.88119173,-7.86503124,0.02134681,154.0,29.1999989,1,0,0,0,60.0425873,60.1706772,,472.0,134.4,150.0,8.1,-10.0,-0.08450979427739556,0.0,-0.05782586460250847,-0.09672506460250865,0.4755219399556124,26.486572055527613,0.4755219399556124,0.4755219399556124,-7,-0.35,-0.6,-0.0,0.2,0.0045,0.06,-0.0005433720122131655,0.005,0.0,0.005,-0.0,8.473479999999995,2.615536750365403,WAITING_CAPTURE
0.48741870000230847,1,5,Approach,2365.82129,176.027,185.733887,-127.546295,55.938262939453125,37.19146728515625,64.62663,55.5356445,2.93730164,0.437927246,-0.430314034,-0.38852405091470193,0.826451296914702,0.27831112694394977,0.0,64.0,0.0170671958,0.11194966,0.11011094064516129,-0.639712342857143,65.10110940645161,6.695825434516126,-900.0,-2.7394798254152777,-0.13322815000078891,-0.772453705,7.1,2.0,26.9518318,27.96318,FLAPS_3,69277.0,175.82571117500004,140.0,113.6,183.0,12.904222182640126,13.6,12.077770885725425,15.0,0,0,0.0,150.0,-127.546295,-0.0247385856,26.4693222,26.5179462,-3.57548,1.55179286,1.54514015,7.6534586,-7.652909,0.06170474,154.0,29.1999989,1,0,0,0,60.0422821,60.1694527,,472.0,134.4,150.0,8.1,-10.0,-0.09716229609547025,0.0,-0.06471445969974432,-0.10361365969974451,0.4754564447458933,26.48292397234626,0.4754564447458933,0.4754564447458933,-7,-0.35,-0.6,-0.0,0.2,0.0045,0.06,-0.000667403918104949,0.005,0.0,0.005,-0.0,8.46435550000001,2.611475949085298,WAITING_CAPTURE
0.5334657000021252,1,5,Approach,2365.931,176.029678,185.725449,-128.497375,55.938262939453125,37.1916389465332,64.63258,55.5541534,3.03329468,0.409576416,-0.5069057,-0.39143886802646904,0.801015284026469,0.27831563556022065,0.0,64.0,0.0170671958,0.11194966,0.11011094064516129,-0.639712342857143,65.10110940645161,6.682869204516126,-900.0,-2.7396040976409304,-0.20229865000051406,-0.771502625,7.1,2.0,26.9518318,27.96318,FLAPS_3,69277.0,175.81419942500008,140.0,113.6,183.0,12.904210911099447,13.6,12.103195627072978,15.0,0,0,0.0,150.0,-128.497375,-0.0292472988,26.4693222,26.5179462,-3.57548,1.70950341,1.70660472,7.4239645,-7.426181,0.103564873,154.0,29.1999989,1,0,0,0,60.04187,60.1681137,,472.0,134.4,150.0,8.1,-10.0,-0.10148336535032138,0.0,-0.07129197718075603,-0.1101911771807562,0.4753909258397601,26.47927456927464,0.4753909258397601,0.4753909258397601,-7,-0.35,-0.6,-0.0,0.2,0.0045,0.06,-0.00079419146834301,0.005,0.0,0.005,-0.0,8.44584660000001,2.608561131973531,WAITING_CAPTURE
0.5787147000010009,1,5,Approach,2367.52,176.029678,185.718155,-129.5007,55.938262939453125,37.1916389465332,64.63516,55.56357,3.08628845,0.393569946,-0.549186,-0.39451067292243713,0.7880806189224372,0.27831563556022065,0.0,64.0,0.0170671958,0.11194966,0.11011094064516129,-0.639712342857143,65.10110940645161,6.676277584516139,-900.0,-2.7397115304712516,-0.27017214999882755,-0.7704993,7.1,2.0,26.9518318,27.96318,FLAPS_3,69277.0,175.80288717500036,140.0,113.6,183.0,12.904210911099447,13.6,12.11613029217701,15.0,0,0,0.0,150.0,-129.5007,-0.0307602156,26.46354,26.5082779,-3.57548,1.78586626,1.78298533,7.25159454,-7.2548995,0.138860911,154.0,29.1999989,1,0,0,0,60.0415344,60.16715,,472.0,134.4,150.0,8.1,-10.0,-0.11208533001636885,0.0,-0.07107439264332602,-0.10686471264332699,0.47532533562847135,26.475621194505855,0.47532533562847135,0.47532533562847135,-7,-0.35,-0.6,-0.0,0.2,0.0045,0.06,-0.0009293429657979811,0.005,0.0,0.005,-0.0,8.436430000000001,2.6054893270775628,WAITING_CAPTURE
0.6258269000027212,1,5,Approach,2367.98242,176.0332,185.709671,-131.200211,55.938262939453125,37.1916389465332,64.63971,55.5826721,3.20097351,0.357666016,-0.6394937,-0.39970615178607305,0.757372167786073,0.27831981996819777,0.0,64.0,0.0177654829,0.113037862,0.11461601870967743,-0.6459306400000001,65.14616018709677,6.69444166096774,-900.0,-2.7398365013231425,-0.34084045000140806,-0.768799789,7.1,2.0,26.9518318,27.96318,FLAPS_3,69277.0,175.79110912499993,140.0,113.6,183.0,12.904200450079506,13.6,12.146828282293432,15.0,0,0,0.0,150.0,-131.200211,-0.0349952467,26.46354,26.5082779,-3.57548,2.04675722,2.04484868,6.80515957,-6.810358,0.2332888,154.0,29.1999989,1,0,0,0,60.0406952,60.16491,,472.0,134.4,150.0,8.1,-10.0,-0.11412139192073747,0.0,-0.07884160698926271,-0.11463192698926368,0.4752531939682419,26.471602904031077,0.4752531939682419,0.4752531939682419,-7,-0.35,-0.6,-0.0,0.2,0.0045,0.06,-0.0010774297592773706,0.005,0.0,0.005,-0.0,8.417327900000004,2.600293848213927,WAITING_CAPTURE
0.6702938000016729,1,5,Approach,2367.92,176.036209,185.709671,-132.139755,55.938262939453125,37.191810607910156,64.63971,55.5826721,3.20097351,0.357666016,-0.6394937,-0.40256841243620795,0.7602344284362079,0.278324349794357,0.0,64.0,0.0177654829,0.113037862,0.11461601870967743,-0.6459306400000001,65.14616018709677,6.69444166096774,-900.0,-2.7398365013231425,-0.4075407999998356,-0.7678602449999999,7.1,2.0,26.9518318,27.96318,FLAPS_3,69277.0,175.7799924000002,140.0,113.6,183.0,12.904189125514108,13.6,12.1439546970779,15.0,0,0,0.0,150.0,-132.139755,-0.0349952467,26.4564114,26.49726,-3.57548,2.10754085,2.105189,6.643169,-6.64777136,0.276051968,154.0,29.1999989,1,0,0,0,60.04044,60.16427,,472.0,134.4,150.0,8.1,-10.0,-0.13292878611499764,0.0,-0.08033282863626105,-0.11301170863626134,0.4751818960469518,26.467631609815218,0.4751818960469518,0.4751818960469518,-7,-0.35,-0.6,-0.0,0.2,0.0045,0.06,-0.0012305484466224846,0.005,0.0,0.005,-0.0,8.417327900000004,2.597431587563792,WAITING_CAPTURE
0.7163016000013158,1,5,Approach,2369.85962,176.036209,185.701187,-133.543716,55.938262939453125,37.191810607910156,64.64484,55.60887,3.36889648,0.300964355,-0.7693139,-0.4068640726375113,0.7078284276375113,0.278324349794357,0.0,64.0,0.0177654829,0.113037862,0.11461601870967743,-0.6459306400000001,65.14616018709677,6.67610313096774,-900.0,-2.7399614835678516,-0.47655249999929994,-0.766456284,7.1,2.0,26.9518318,27.96318,FLAPS_3,69277.0,175.7684904500003,140.0,113.6,183.0,12.904189125514108,13.6,12.196360697876596,15.0,0,0,0.0,150.0,-133.543716,-0.040565338,26.4564114,26.49726,-3.57548,2.226443,2.22280955,6.435255,-6.44065046,0.332699448,154.0,29.1999989,1,0,0,0,60.0395851,60.1621361,,472.0,134.4,150.0,8.1,-10.0,-0.12474198338075099,0.0,-0.08530486053947675,-0.11798374053947702,0.4751067851444674,26.463447932546835,0.4751067851444674,0.4751067851444674,-7,-0.35,-0.6,-0.0,0.2,0.0045,0.06,-0.0013915217264477006,0.005,0.0,0.005,-0.0,8.391130000000004,2.5931359273624888,WAITING_CAPTURE
0.7487127000022156,1,5,Approach,2370.298,176.040039,185.701187,-136.00589,55.938262939453125,37.191810607910156,64.64719,55.6222839,3.45806885,0.268676758,-0.835955,-0.4143652532077197,0.6830420112077198,0.2783295977267367,0.0,64.0,0.0185151529,0.114190482,0.11945259935483872,-0.65251704,65.19452599354838,6.7005694654838575,-900.0,-2.7399614835678516,-0.5251691500006496,-0.76399411,7.1,2.0,26.9518318,27.96318,FLAPS_3,69277.0,175.76038767500006,140.0,113.6,183.0,12.904176005683158,13.6,12.221133994475439,15.0,0,0,0.0,150.0,-136.00589,-0.04320748,26.4485245,26.4857941,-3.57548,2.282928,2.2818265,6.188987,-6.193176,0.4020031,154.0,29.1999989,1,0,0,0,60.0385551,60.15973,,472.0,134.4,150.0,8.1,-10.0,-0.12399168925765996,0.0,-0.08582739591733303,-0.11564307591733171,0.47505133409147693,26.460359308895267,0.47505133409147693,0.47505133409147693,-7,-0.35,-0.6,-0.0,0.2,0.0045,0.06,-0.001507304112440514,0.005,0.0,0.005,-0.0,8.377716099999986,2.5856347467922802,WAITING_CAPTURE
0.7920565999993414,1,5,Approach,2371.152,176.043442,185.692734,-137.913055,55.93843460083008,37.19198226928711,64.6483459,55.62906,3.5037384,0.251525879,-0.869078159,-0.42019467766668067,0.6717205566666806,0.27833512290265733,0.0,64.0,0.0185151529,0.114190482,0.11945259935483872,-0.65251704,65.19452599354838,6.6958261954838605,-900.0,-2.7400860204673334,-0.5901849999963383,-0.7620869450000001,7.1,2.0,26.9518318,27.96318,FLAPS_3,69277.0,175.74955170000078,140.0,113.6,183.0,12.904162192743357,13.6,12.232441636076675,15.0,0,0,0.0,150.0,-137.913055,-0.0445244722,26.4485245,26.4857941,-3.57548,2.36560774,2.36273,6.050512,-6.055086,0.443624347,154.0,29.1999989,1,0,0,0,60.0377579,60.1579781,,472.0,134.4,150.0,8.1,-10.0,-0.1361728299619546,0.0,-0.0936174262694984,-0.12343310626949708,0.4749738048720508,26.45604093137323,0.4749738048720508,0.4749738048720508,-7,-0.35,-0.6,-0.0,0.2,0.0045,0.06,-0.00167147775718621,0.005,0.0,0.005,-0.0,8.37093999999999,2.5798053223333195,WAITING_CAPTURE
0.8400947000009182,1,5,Approach,2371.25146,176.043442,185.684326,-139.492,55.93843460083008,37.19198226928711,64.65314,55.6567841,3.69224548,0.176223755,-1.00145578,-0.42502448937572085,0.6012482443757209,0.27833512290265733,0.0,64.0,0.0185151529,0.114190482,0.11945259935483872,-0.65251704,65.19452599354838,6.6764193254838595,-900.0,-2.740209905610555,-0.6622421499987036,-0.7605080000000001,7.1,2.0,26.9518318,27.96318,FLAPS_3,69277.0,175.73754217500039,140.0,113.6,183.0,12.904162192743357,13.6,12.302913948367635,15.0,0,0,0.0,150.0,-139.492,-0.04958998,26.4485245,26.4857941,-3.57548,2.36460567,2.36463761,5.85987043,-5.863926,0.5004748,154.0,29.1999989,1,0,0,0,60.0363846,60.155098,,472.0,134.4,150.0,8.1,-10.0,-0.12284846449943253,0.0,-0.09922793048831455,-0.12904361048831323,0.4748863994291732,26.45117244820495,0.4748863994291732,0.4748863994291732,-7,-0.35,-0.6,-0.0,0.2,0.0045,0.06,-0.0018527301476512913,0.005,0.0,0.005,-0.0,8.34321589999999,2.574975510624279,WAITING_CAPTURE
0.8857943000002706,1,5,Approach,2372.51221,176.047989,185.684326,-141.2243,55.93843460083008,37.19198226928711,64.65506,55.6674347,3.76490784,0.145263672,-1.050075,-0.43030251541164277,0.5755661874116428,0.2783414343594397,0.0,64.0,0.0192092285,0.115239047,0.12393050645161291,-0.65850884,65.23930506451613,6.700309255161301,-900.0,-2.740209905610555,-0.7307915499977321,-0.7587757,7.1,2.0,26.9518318,27.96318,FLAPS_3,69277.0,175.72611727500055,140.0,113.6,183.0,12.904146414101401,13.6,12.328580226689759,15.0,0,0,0.0,150.0,-141.2243,-0.0520460941,26.4391632,26.4734516,-3.57548,2.44604921,2.4449532,5.72682667,-5.729536,0.541031659,154.0,29.1999989,1,0,0,0,60.03535,60.1529846,,472.0,134.4,150.0,8.1,-10.0,-0.1317821861714609,0.0,-0.10110123793226555,-0.12853195793226654,0.47479877112766383,26.446291551810877,0.47479877112766383,0.47479877112766383,-7,-0.35,-0.6,-0.0,0.2,0.0045,0.06,-0.002032889327153172,0.005,0.0,0.005,-0.0,8.332565299999999,2.569697484588357,WAITING_CAPTURE
0.9328447000007145,1,5,Approach,2373.09229,176.052124,185.677292,-145.863815,55.93843460083008,37.19215393066406,64.66008,55.69281,3.93759155,0.06739807,-1.15841043,-0.4444551351297659,0.511853205129766,0.27834698226024074,0.0,64.0,0.0192092285,0.115239047,0.12393050645161291,-0.65850884,65.23930506451613,6.682546545161295,-900.0,-2.7403135545643047,-0.801367149998398,-0.7541361850000001,7.1,2.0,26.9518318,27.96318,FLAPS_3,69277.0,175.71435467500044,140.0,113.6,183.0,12.904132544349398,13.6,12.392279339219632,15.0,0,0,0.0,150.0,-145.863815,-0.0579964966,26.4391632,26.4734516,-3.57548,2.428176,2.42860818,5.57192469,-5.57422161,0.5903899,154.0,29.1999989,1,0,0,0,60.03298,60.1482773,,472.0,134.4,150.0,8.1,-10.0,-0.11922285385232341,0.0,-0.11039701650597988,-0.13782773650598085,0.4747042579476709,26.44102716768527,0.4747042579476709,0.4747042579476709,-7,-0.35,-0.6,-0.0,0.2,0.0045,0.06,-0.002216830207136464,0.005,0.0,0.005,-0.0,8.307189999999991,2.555544864870234,WAITING_CAPTURE
0.9768637000015588,1,5,Approach,2373.62939,176.052124,185.669189,-148.177551,55.93843460083008,37.19215393066406,64.6625061,55.70392,4.01268,0.03175354,-1.20059192,-0.4515246313012624,0.4832781713012624,0.27834698226024074,0.0,64.0,0.0192092285,0.115239047,0.12393050645161291,-0.65850884,65.23930506451613,6.674769545161293,-900.0,-2.740432965395604,-0.8673956499996643,-0.7518224490000001,7.1,2.0,26.9518318,27.96318,FLAPS_3,69277.0,175.70334992500023,140.0,113.6,183.0,12.904132544349398,13.6,12.420854373048137,15.0,0,0,0.0,150.0,-148.177551,-0.0597792156,26.4290524,26.460598,-3.57548,2.36817145,2.36975265,5.51273155,-5.514628,0.609804332,154.0,29.1999989,1,0,0,0,60.03163,60.1456833,,472.0,134.4,150.0,8.1,-10.0,-0.12709018511906056,0.0,-0.10786669604761255,-0.1331031760476135,0.47461459883144513,26.436033154911495,0.47461459883144513,0.47461459883144513,-7,-0.35,-0.6,-0.0,0.2,0.0045,0.06,-0.0023949386240155585,0.005,0.0,0.005,-0.0,8.296080000000018,2.5484753686987376,WAITING_CAPTURE
1.0237985999992816,1,6,Approach,2375.4978,176.057816,185.669189,-154.317688,55.93843460083008,37.192325592041016,64.6651,55.71518,4.088257,-0.0051574707,-1.23999059,-0.47023395035708493,0.46507647965708493,0.2783553934959718,0.0,64.0,0.0199530032,0.1163421,0.1287290529032258,-0.6648120000000001,65.28729052903226,6.700477370322591,-900.0,-2.740432965395604,-0.9377979999962486,-0.745682312,7.1,2.0,26.9518318,27.96318,FLAPS_3,69277.0,175.6916162000008,140.0,113.6,183.0,12.90411151626007,13.6,12.439035036602984,15.0,0,0,0.0,150.0,-154.317688,-0.0619231462,26.4290524,26.460598,-3.57548,2.21886778,2.221404,5.39532328,-5.39669943,0.6444425,154.0,29.1999989,1,0,0,0,60.02938,60.1414948,,472.0,134.4,150.0,8.1,-10.0,-0.13564809680600937,0.0,-0.11878471520902067,-0.14402119520902162,0.4745135931520033,26.430407138566586,0.4745135931520033,0.4745135931520033,-7,-0.35,-0.6,-0.0,0.2,0.0045,0.06,-0.002591918878909101,0.005,0.0,0.005,-0.0,8.284819999999996,2.529766049642915,WAITING_CAPTURE
1.0691284000022279,1,6,Approach,2375.42651,176.064316,185.6625,-157.3066,55.93843460083008,37.192325592041016,64.67207,55.7420349,4.266159,-0.09555054,-1.31818783,-0.4793585545131906,0.3838080145131906,0.2783652212492476,0.0,64.0,0.0199530032,0.1163421,0.1287290529032258,-0.6648120000000001,65.28729052903226,6.681678940322578,-900.0,-2.740531546481842,-1.0,-0.7426934000000001,7.1,2.0,26.9518318,27.96318,FLAPS_3,69277.0,175.68028375000006,140.0,113.6,183.0,12.90408694687688,13.6,12.52027893236369,15.0,0,0,0.0,150.0,-157.3066,-0.0656214356,26.4290524,26.460598,-3.57548,2.11755753,2.11960125,5.347446,-5.34852648,0.657822132,154.0,29.1999989,1,0,0,0,60.026844,60.13694,,472.0,134.4,150.0,8.1,-10.0,-0.11677406522805087,0.0,-0.1302587433525227,-0.1554952233525236,0.4744104444765627,26.424661757344545,0.4744104444765627,0.4744104444765627,-7,-0.35,-0.6,-0.0,0.2,0.0045,0.06,-0.0027764121880146787,0.005,0.0,0.005,-0.0,8.257965100000007,2.5206414454868096,WAITING_CAPTURE
1.1133798000009847,1,6,Approach,2376.45483,176.064316,185.655045,-161.617447,55.93843460083008,37.192325592041016,64.6754761,55.7538,4.34289551,-0.135879517,-1.34536672,-0.4925140847169622,0.35663456771696217,0.2783652212492476,0.0,64.0,0.0199530032,0.1163421,0.1287290529032258,-0.6648120000000001,65.28729052903226,6.673443370322584,-900.0,-2.7406414250674924,-1.0,-0.738382553,7.1,2.0,26.9518318,27.96318,FLAPS_3,69277.0,175.66922090000037,140.0,113.6,183.0,12.90408694687688,13.6,12.547452379159918,15.0,0,0,0.0,150.0,-161.617447,-0.06761072,26.4182644,26.4472885,-3.57548,2.04913,2.05105877,5.3141036,-5.315128,0.665891767,154.0,29.1999989,1,0,0,0,60.02499,60.1337128,,472.0,134.4,150.0,8.1,-10.0,-0.11130401918529742,0.0,-0.12756955013144064,-0.1507888301314385,0.4743086338777879,26.418990906992786,0.4743086338777879,0.4743086338777879,-7,-0.35,-0.6,-0.0,0.2,0.0045,0.06,-0.0029484856231462623,0.005,0.0,0.005,-0.0,8.246199999999988,2.5074859152830378,WAITING_CAPTURE
1.1611803000014334,1,6,Approach,2376.87622,176.071457,185.655045,-168.80603,55.93843460083008,37.19249725341797,64.68042,55.7697144,4.44554138,-0.190872192,-1.37589753,-0.5144194682673484,0.3235472762673484,0.2783757398388876,0.0,64.0,0.02064034,0.117340215,0.13316348387096774,-0.6705155142857143,65.33163483870968,6.6933443070967735,-900.0,-2.7406414250674924,-1.0,-0.7311939700000001,7.1,2.0,26.9518318,27.96318,FLAPS_3,69277.0,175.65727077500026,140.0,113.6,183.0,12.90406065040278,13.6,12.580513374135432,15.0,0,0,0.0,150.0,-168.80603,-0.07112196,26.4182644,26.4472885,-3.57548,1.85075438,1.85386825,5.27284765,-5.273601,0.675183,154.0,29.1999989,1,0,0,0,60.0219574,60.12858,,472.0,134.4,150.0,8.1,-10.0,-0.09951030718894471,0.0,-0.14021373546572766,-0.16343301546572553,0.4741922570887272,26.412508719842105,0.4741922570887272,0.4741922570887272,-7,-0.35,-0.6,-0.0,0.2,0.0045,0.06,-0.003122530835186264,0.005,0.0,0.005,-0.0,8.230285600000002,2.4855805317326514,WAITING_CAPTURE
1.2059941000006802,1,6,Approach,2377.69946,176.078384,185.648026,-174.113571,55.93843460083008,37.19249725341797,64.68884,55.7940979,4.599991,-0.2753296,-1.405738,-0.5306128167953282,0.2552832167953282,0.27838556456217933,0.0,64.0,0.02064034,0.117340215,0.13316348387096774,-0.6705155142857143,65.33163483870968,6.676275857096774,-900.0,-2.7407448855349053,-1.0,-0.725886429,7.1,2.0,26.9518318,27.96318,FLAPS_3,69277.0,175.64606732500044,140.0,113.6,183.0,12.904036088594552,13.6,12.648752871799223,15.0,0,0,0.0,150.0,-174.113571,-0.0746726543,26.405241,26.43174,-3.57548,1.73032749,1.73294342,5.246922,-5.24755859,0.6774308,154.0,29.1999989,1,0,0,0,60.0186119,60.1230621,,472.0,134.4,150.0,8.1,-10.0,-0.07320171321885317,0.0,-0.1419109148861988,-0.16311011488619973,0.47407751743484233,26.40611772112072,0.47407751743484233,0.47407751743484233,-7,-0.35,-0.6,-0.0,0.2,0.0045,0.06,-0.003268669389855648,0.005,0.0,0.005,-0.0,8.205902100000003,2.4693871832046717,WAITING_CAPTURE
1.2521455999994942,1,6,Approach,2378.86182,176.087692,185.64238,-182.865753,55.93860626220703,37.19266891479492,64.69351,55.8065338,4.677368,-0.318191528,-1.41421032,-0.5573004832099837,0.2391089552099837,0.2783992494851546,0.0,64.0,0.0213243086,0.118313842,0.13757618451612905,-0.6760790971428572,65.37576184516129,6.698459631612916,-900.0,-2.740828113567284,-1.0,-0.717134247,7.1,2.0,26.9518318,27.96318,FLAPS_3,69277.0,175.63452945000074,140.0,113.6,183.0,12.904001876287113,13.6,12.66489292107713,15.0,0,0,0.0,150.0,-182.865753,-0.0759566948,26.405241,26.43174,-3.57548,1.39897668,1.4018693,5.21898,-5.219391,0.6762432,154.0,29.1999989,1,0,0,0,60.0149,60.11715,,472.0,134.4,150.0,8.1,-10.0,-0.06874344385036936,0.0,-0.15630080858762646,-0.17750000858762738,0.4739520616852167,26.39912983586657,0.4739520616852167,0.4739520616852167,-7,-0.35,-0.6,-0.0,0.2,0.0045,0.06,-0.003410268566481795,0.005,0.0,0.005,-0.0,8.193466199999989,2.4426995167900163,WAITING_CAPTURE
1.2981284000015876,1,6,Approach,2378.74756,176.087692,185.6364,-189.225357,55.93860626220703,37.19266891479492,64.70575,55.83612,4.85806274,-0.41859436,-1.41146171,-0.5766992598560501,0.15810489985605009,0.2783992494851546,0.0,64.0,0.0213243086,0.118313842,0.13757618451612905,-0.6760790971428572,65.37576184516129,6.677749291612908,-900.0,-2.7409162706222676,-1.0,-0.710774643,7.1,2.0,26.9518318,27.96318,FLAPS_3,69277.0,175.62303375000022,140.0,113.6,183.0,12.904001876287113,13.6,12.745896976431062,15.0,0,0,0.0,150.0,-189.225357,-0.07982677,26.405241,26.43174,-3.57548,1.17105114,1.17603076,5.204189,-5.20445347,0.6713127,154.0,29.1999989,1,0,0,0,60.01083,60.11085,,472.0,134.4,150.0,8.1,-10.0,-0.03646326729724425,0.0,-0.162893841304397,-0.18409304130439794,0.4738262498272628,26.392122115378537,0.4738262498272628,0.4738262498272628,-7,-0.35,-0.6,-0.0,0.2,0.0045,0.06,-0.003530574533170736,0.005,0.0,0.005,-0.0,8.163880000000006,2.42330074014395,WAITING_CAPTURE
